     2.11           OBSERVATION DATA    M (MIXED)           RINEX VERSION / TYPE
teqc  2016Nov7      KASI/KOREA          20200816 00:18:14UTCPGM / RUN BY / DATE
Linux 2.4.20-8|Pentium IV|gcc|Linux|486/DX+                 COMMENT
  0.0000      (antenna height)                              COMMENT
 +36.39942714 (latitude)                                    COMMENT
+127.37448264 (longitude)                                   COMMENT
0116.859      (elevation)                                   COMMENT
BIT 2 OF LLI FLAGS DATA COLLECTED UNDER A/S CONDITION       COMMENT
23902M002 (COGO code)                                       COMMENT
DAEJ                                                        MARKER NAME
23902M002                                                   MARKER NUMBER
KASI GPS            KASI/KOREA                              OBSERVER / AGENCY
5412K48145          TRIMBLE NETR9       5.44                REC # / TYPE / VERS
4923363230          TRM59800.00     SCIS                    ANT # / TYPE
 -3120042.6501  4084614.3432  3764027.4767                  APPROX POSITION XYZ
        0.0000        0.0000        0.0000                  ANTENNA: DELTA H/E/N
     1     1                                                WAVELENGTH FACT L1/2
    10    L1    L2    L5    C1    P1    P2    C5    S1    S2# / TYPES OF OBSERV
          S5                                                # / TYPES OF OBSERV
    18                                                      LEAP SECONDS
 SNR is mapped to RINEX snr flag value [0-9]                COMMENT
  L1 & L2: min(max(int(snr_dBHz/6), 0), 9)                  COMMENT
  2020     8    16     0     0    0.0000000     GPS         TIME OF FIRST OBS
                                                            END OF HEADER
 20  8 16  0  0  0.0000000  0 22R01G17G07G08G03R18R24R17G28G11R02G30
                                G01R14G22R16R15E36E02E25E14E30
 122430855.042 5  95224144.400 4                  22903250.688    22903251.227
  22903258.434                          30.100          27.800
 122107934.005 6  95148944.04445                  23236334.484
  23236341.496                          36.200          33.900
 124439559.964 5  96965949.18945                  23680074.156
  23680079.992                          34.200          30.300
 123702686.050 5  96391717.23043  92375387.344 7  23539836.102
  23539846.074    23539845.297          35.700          21.800          43.900
 116051436.949 6  90429793.55646  86661887.264 8  22083867.609
  22083875.270    22083876.199          41.100          41.200          48.900
 113979410.189 6  88650571.593 6                  21352158.125    21352157.336
  21352162.891                          38.900          41.700
 119783011.934 6  93164580.672 6                  22400031.422    22400031.402
  22400035.281                          36.400          38.000
 106390799.804 7  82748291.136 7                  19881635.648    19881634.414
  19881638.656                          44.100          44.900
 112717834.111 7  87832088.19545                  21449483.359
  21449488.773                          42.600          32.700
 113518779.673 6  88456195.45544                  21601902.594
  21601908.133                          40.500          27.600
 123304890.106 5  95903826.744 5                  23107282.289    23107281.840
  23107286.859                          34.500          34.000
 119690256.243 6  93265175.02945  89379124.510 7  22776302.984
  22776310.980    22776311.273          37.300          35.900          46.800
 106954304.362 7  83341089.50048  79868536.434 8  20352737.109
  20352745.961    20352744.566          44.900          50.000          52.900
 115542369.836 6  89866310.443 6                  21675457.391    21675457.168
  21675463.965                          39.500          40.500
 114245158.844 7  89022205.73745                  21740123.805
  21740126.906                          43.100          34.400
 117757284.767 5  91588931.013 5                  22044390.844    22044391.605
  22044395.125                          31.200          34.300
 104865269.701 7  81561786.125 7                  19624078.750    19624078.375
  19624082.906                          45.300          46.400
 127013509.468 7                  94847769.006 8  24169867.570
                  24169873.578          44.700                          48.500
 124756933.456 7                  93162659.466 8  23740455.438
                  23740459.926          45.900                          50.500
 143855002.431 5                 107424204.780 6  27374699.664
                  27374706.457          34.800                          40.400
 125301998.815 5                  93569691.162 6  23844177.531
                  23844182.406          32.500                          40.000
 121997865.257 7                  91102330.907 8  23215419.016
                  23215423.883          44.700                          48.000
 20  8 16  0  0  1.0000000  0 22R01G17G07G08G03R18R24R17G28G11R02G30
                                G01R14G22R16R15E36E02E25E14E30
 122430669.85614  95224000.418 4                  22903217.305    22903216.273
  22903223.785                          29.700          28.300
 122105916.982 5  95147372.35445                  23235951.266
  23235957.762                          35.700          34.000
 124442706.823 5  96968401.27844                  23680672.656
  23680678.602                          34.300          28.600
 123705013.685 5  96393530.97243  92377125.517 7  23540280.188
  23540289.141    23540288.285          35.500          20.600          43.900
 116048879.229 6  90427800.52346  86659977.294 8  22083380.867
  22083388.344    22083389.324          40.900          41.100          48.900
 113977655.605 6  88649206.946 6                  21351829.219    21351828.820
  21351834.211                          38.900          41.400
 119785853.231 5  93166790.575 6                  22400562.852    22400562.520
  22400566.707                          35.700          38.200
 106391576.238 7  82748895.050 7                  19881780.281    19881779.355
  19881783.742                          44.100          45.200
 112715814.836 7  87830514.72845                  21449099.359
  21449104.379                          42.400          32.900
 113521112.385 6  88458013.16244                  21602346.664
  21602351.984                          40.200          27.900
 123301561.595 5  95901237.937 5                  23106659.055    23106657.988
  23106663.230                          34.100          34.900
 119692478.863 6  93266906.94845  89380784.236 7  22776726.250
  22776733.953    22776734.012          36.600          35.800          46.500
 106955882.432 7  83342319.17348  79869714.860 8  20353037.875
  20353046.188    20353044.895          45.000          49.700          52.900
 115546446.744 6  89869481.387 6                  21676222.695    21676222.355
  21676228.754                          39.200          40.500
 114244338.375 7  89021566.42245                  21739967.047
  21739970.828                          43.000          33.800
 117754205.104 5  91586535.731 5                  22043814.234    22043814.922
  22043818.777                          31.000          34.800
 104866050.396 7  81562393.321 7                  19624224.375    19624224.578
  19624229.008                          45.100          46.600
 127015103.127 7                  94848959.070 8  24170171.125
                  24170176.602          44.700                          48.600
 124758467.952 7                  93163805.355 8  23740747.484
                  23740751.965          46.100                          50.200
 143858054.486 5                 107426483.910 6  27375280.344
                  27375287.301          34.700                          40.400
 125295917.443 5                  93565149.837 6  23843019.914
                  23843025.148          33.200                          40.000
 121996612.949 7                  91101395.745 8  23215180.867
                  23215185.711          44.300                          48.100
 20  8 16  0  0  2.0000000  0 22R01G17G07G08G03R18R24R17G28G11R02G30
                                G01R14G22R16R15E36E02E25E14E30
 122430485.440 4  95223857.021 4                  22903184.805    22903182.035
  22903189.352                          29.700          28.300
 122103900.075 6  95145800.73545                  23235567.609
  23235573.844                          36.000          34.700
 124445853.721 5  96970853.40944                  23681271.977
  23681277.520                          35.000          29.500
 123707341.369 6  96395344.74943  92378863.751 7  23540723.734
  23540732.125    23540731.277          36.800          21.100          43.900
 116046321.913 6  90425807.81146  86658067.603 8  22082894.289
  22082901.680    22082902.910          40.600          41.300          49.100
 113975901.296 6  88647842.468 6                  21351500.586    21351499.844
  21351505.621                          38.700          41.100
 119788694.463 6  93169000.429 6                  22401093.820    22401093.883
  22401098.254                          36.000          37.700
 106392352.929 7  82749499.131 7                  19881925.359    19881924.758
  19881928.953                          44.100          45.100
 112713795.836 7  87828941.48645                  21448715.500
  21448720.160                          42.600          34.100
 113523445.224 6  88459830.94744                  21602791.398
  21602795.965                          40.600          28.600
 123298233.299 5  95898649.233 5                  23106034.359    23106033.945
  23106039.590                          34.100          34.200
 119694701.794 6  93268639.09845  89382444.233 7  22777149.359
  22777156.941    22777157.137          37.200          35.200          46.400
 106957460.944 7  83343549.18248  79870893.616 8  20353338.102
  20353346.574    20353345.176          45.600          50.000          53.000
 115550523.987 6  89872652.570 6                  21676987.602    21676987.527
  21676993.590                          39.800          40.400
 114243518.483 7  89020927.53945                  21739811.273
  21739814.727                          43.100          34.000
 117751125.997 5  91584140.851 5                  22043239.695    22043238.621
  22043242.516                          31.700          35.000
 104866831.941 7  81563001.188 7                  19624371.234    19624370.633
  19624375.262                          45.100          46.000
 127016696.843 7                  94850149.180 8  24170474.109
                  24170480.113          44.900                          48.600
 124760002.803 7                  93164951.524 8  23741039.383
                  23741043.973          46.500                          50.200
 143861106.612 5                 107428763.079 6  27375861.328
                  27375868.020          35.400                          40.600
 125289835.989 5                  93560608.506 6  23841862.789
                  23841867.824          31.700                          39.900
 121995360.992 7                  91100460.835 8  23214942.305
                  23214947.258          44.700                          48.100
 20  8 16  0  0  3.0000000  0 22R01G17G07G08G03R18R24R17G28G11R02G30
                                G01R14G22R16R15E36E02E25E14E30
 122430301.845 5  95223714.169 4                  22903149.773    22903147.512
  22903155.055                          30.500          27.200
 122101883.181 6  95144229.13145                  23235183.703
  23235189.914                          36.100          33.600
 124449000.707 5  96973305.60245                  23681870.891
  23681876.328                          34.100          30.100
 123709669.175 6  96397158.62443  92380602.045 7  23541165.586
  23541175.090    23541174.301          36.000          21.100          43.700
 116043765.001 6  90423815.41646  86656158.236 8  22082406.516
  22082415.047    22082416.234          40.300          41.400          49.400
 113974147.332 6  88646478.277 6                  21351172.508    21351171.512
  21351176.965                          38.300          41.100
 119791535.702 6  93171210.286 6                  22401625.602    22401624.977
  22401629.648                          36.300          37.800
 106393129.878 7  82750103.429 7                  19882070.578    19882069.906
  19882074.105                          43.900          45.500
 112711777.189 7  87827368.52045                  21448330.672
  21448336.066                          42.100          33.400
 113525778.327 6  88461648.96344                  21603234.703
  21603239.949                          41.000          28.200
 123294905.198 5  95896060.717 5                  23105410.992    23105410.074
  23105415.984                          33.800          34.400
 119696925.120 6  93270371.55945  89384104.492 7  22777572.758
  22777579.980    22777580.277          37.500          35.700          46.500
 106959039.930 7  83344779.55948  79872072.724 8  20353638.867
  20353647.031    20353645.680          45.200          50.000          53.100
 115554601.548 6  89875824.003 6                  21677753.273    21677752.664
  21677758.609                          39.900          40.900
 114242699.194 7  89020289.13045                  21739655.617
  21739658.793                          43.900          34.300
 117748047.564 5  91581746.484 5                  22042663.242    22042662.246
  22042666.328                          31.600          34.900
 104867614.369 7  81563609.744 7                  19624517.398    19624517.027
  19624521.703                          45.400          46.200
 127018290.688 7                  94851339.392 8  24170777.305
                  24170783.301          45.100                          48.800
 124761538.061 7                  93166097.983 8  23741331.586
                  23741336.078          46.600                          50.300
 143864158.816 5                 107431042.346 6  27376442.227
                  27376448.781          35.600                          40.900
 125283754.559 5                  93556067.162 6  23840705.344
                  23840710.223          31.300                          39.900
 121994109.418 7                  91099526.233 8  23214704.367
                  23214709.195          44.800                          48.400
 20  8 16  0  0  4.0000000  0 22R01G17G07G08G03R18R24R17G28G11R02G30
                                G01R14G22R16R15E36E02E25E14E30
 122430119.015 5  95223571.980 4                  22903114.453    22903113.453
  22903120.930                          30.100          29.100
 122099866.386 5  95142657.59445                  23234799.602
  23234806.074                          35.700          34.100
 124452147.851 5  96975757.91844                  23682468.930
  23682475.113                          34.200          29.300
 123711997.187 5  96398972.65343  92382340.440 7  23541608.383
  23541618.031    23541617.250          35.800          21.500          43.600
 116041208.572 6  90421823.39646  86654249.220 8  22081920.727
  22081928.551    22081929.840          40.200          41.100          49.100
 113972393.648 6  88645114.330 6                  21350844.781    21350843.094
  21350848.441                          38.600          41.500
 119794376.955 6  93173420.145 6                  22402156.078    22402156.559
  22402160.984                          36.100          37.400
 106393907.192 7  82750708.014 7                  19882215.820    19882214.945
  19882219.273                          43.900          45.500
 112709758.892 7  87825795.81945                  21447947.531
  21447952.047                          42.300          33.400
 113528111.691 6  88463467.15744                  21603678.867
  21603683.773                          41.000          28.200
 123291577.395 5  95893472.434 5                  23104785.906    23104786.270
  23104792.395                          33.900          34.300
 119699148.808 6  93272104.30246  89385765.054 7  22777995.500
  22778003.113    22778003.496          37.000          36.000          46.800
 106960619.425 7  83346010.34148  79873252.215 8  20353939.469
  20353947.645    20353946.258          45.100          49.900          52.800
 115558679.519 6  89878995.751 6                  21678517.813    21678517.379
  21678523.699                          40.000          41.000
 114241880.550 7  89019651.23145                  21739499.867
  21739503.020                          43.700          34.300
 117744969.636 5  91579352.573 5                  22042087.828    22042085.996
  22042090.328                          31.600          33.800
 104868397.736 7  81564219.031 7                  19624664.703    19624664.141
  19624668.277                          45.400          46.300
 127019884.711 7                  94852529.717 8  24171080.805
                  24171086.574          45.300                          48.600
 124763073.782 7                  93167244.774 8  23741623.750
                  23741628.457          46.100                          50.300
 143867211.148 5                 107433321.670 6  27377022.797
                  27377029.648          35.600                          40.900
 125277673.133 5                  93551525.860 6  23839548.172
                  23839553.172          31.800                          39.600
 121992858.287 7                  91098591.940 8  23214466.266
                  23214471.105          45.300                          48.000
 20  8 16  0  0  5.0000000  0 22R01G17G07G08G03R18R24R17G28G11R02G30
                                G01R14G22R16R15E36E02E25E14E30
 122429936.986 5  95223430.415 4                  22903080.172    22903079.145
  22903086.977                          30.100          28.900
 122097849.539 5  95141086.02745                  23234416.031
  23234422.367                          35.800          34.100
 124455294.984 5  96978210.22344                  23683068.906
  23683074.211                          34.300          29.600
 123714325.148 5  96400786.65543  92384078.887 7  23542052.133
  23542061.027    23542060.262          35.200          21.700          43.800
 116038652.567 6  90419831.70846  86652340.503 8  22081434.703
  22081442.121    22081443.309          39.900          41.300          48.800
 113970640.307 6  88643750.596 6                  21350515.352    21350514.730
  21350520.137                          38.400          41.500
 119797218.174 6  93175629.986 6                  22402687.992    22402688.082
  22402692.336                          36.500          37.800
 106394684.747 7  82751312.785 7                  19882360.789    19882360.313
  19882364.574                          44.000          45.500
 112707740.898 7  87824223.36445                  21447563.469
  21447568.148                          42.700          33.600
 113530445.216 6  88465285.49144                  21604122.469
  21604127.859                          40.500          28.200
 123288249.791 5  95890884.268 5                  23104163.375    23104162.766
  23104168.891                          33.700          34.700
 119701372.897 6  93273837.36145  89387425.888 7  22778418.195
  22778426.246    22778426.676          37.200          35.700          46.600
 106962199.369 7  83347241.46648  79874432.056 8  20354239.969
  20354248.277    20354246.895          45.000          49.800          53.000
 115562757.785 6  89882167.752 6                  21679282.984    21679282.430
  21679288.660                          39.400          41.100
 114241062.473 7  89019013.76345                  21739344.125
  21739347.367                          43.300          33.500
 117741892.349 5  91576959.122 5                  22041511.414    22041509.742
  22041514.102                          31.500          34.500
 104869182.023 7  81564829.028 7                  19624810.711    19624810.500
  19624814.996                          45.000          46.100
 127021478.811 7                  94853720.121 8  24171384.188
                  24171389.910          44.900                          48.900
 124764609.864 7                  93168391.861 8  23741916.039
                  23741920.766          45.800                          50.500
 143870263.602 5                 107435601.096 6  27377603.758
                  27377610.578          35.300                          40.400
 125271591.688 5                  93546984.497 6  23838390.891
                  23838395.930          31.700                          39.800
 121991607.529 7                  91097657.944 8  23214228.563
                  23214232.980          45.100                          48.000
 20  8 16  0  0  6.0000000  0 22R01G17G07G08G03R18R24R17G28G11R02G30
                                G01R14G22R16R15E36E02E25E14E30
 122429755.384 4  95223289.172 4                  22903046.656    22903045.051
  22903052.934                          29.800          28.700
 122095832.448 5  95139514.27345                  23234031.656
  23234038.512                          35.400          33.800
 124458441.999 5  96980662.43045                  23683666.727
  23683673.102                          33.900          30.200
 123716652.935 5  96402600.50843  92385817.154 7  23542495.313
  23542504.070    23542503.309          35.800          21.700          44.100
 116036096.608 6  90417840.06046  86650431.843 8  22080948.297
  22080955.836    22080956.945          39.900          41.100          48.900
 113968886.927 6  88642386.830 6                  21350186.836    21350185.836
  21350191.656                          38.700          41.300
 119800059.061 6  93177839.553 6                  22403219.172    22403219.324
  22403223.625                          36.300          37.900
 106395462.243 7  82751917.493 7                  19882506.250    19882505.664
  19882509.945                          44.000          44.800
 112705722.865 7  87822650.87145                  21447179.898
  21447184.336                          42.600          33.100
 113532778.615 6  88467103.72944                  21604567.102
  21604571.777                          40.900          28.000
 123284921.999 5  95888295.990 5                  23103540.898    23103539.059
  23103545.199                          33.600          34.900
 119703597.000 6  93275570.42945  89389086.751 7  22778841.180
  22778849.590    22778849.977          37.000          35.300          47.000
 106963779.453 7  83348472.69648  79875611.991 8  20354540.688
  20354548.902    20354547.586          45.300          50.000          52.900
 115566836.070 6  89885339.734 6                  21680048.531    21680047.387
  21680053.863                          39.200          40.800
 114240244.673 7  89018376.51945                  21739188.859
  21739191.852                          43.400          34.200
 117738815.243 5  91574565.821 5                  22040934.813    22040934.191
  22040938.047                          32.300          34.500
 104869966.852 7  81565439.451 7                  19624958.039    19624957.441
  19624961.926                          45.200          45.100
 127023072.690 7                  94854910.368 8  24171687.508
                  24171693.293          44.500                          49.000
 124766146.021 7                  93169538.988 8  23742208.531
                  23742213.176          46.100                          50.700
 143873315.786 5                 107437880.312 6  27378184.906
                  27378191.422          34.800                          40.500
 125265509.907 5                  93542442.906 6  23837233.648
                  23837238.516          31.800                          40.000
 121990356.827 7                  91096723.962 7  23213990.391
                  23213995.078          45.100                          47.900
 20  8 16  0  0  7.0000000  0 22R01G17G07G08G03R18R24R17G28G11R02G30
                                G01R14G22R16R15E36E02E25E14E30
 122429574.482 5  95223148.431 4                  22903013.789    22903011.316
  22903019.125                          30.600          28.900
 122093815.330 6  95137942.49245                  23233648.102
  23233654.641                          36.200          34.100
 124461588.931 5  96983114.59545                  23684266.445
  23684271.895                          33.500          30.100
 123718980.623 5  96404414.30243  92387555.403 7  23542938.570
  23542946.918    23542946.305          35.700          21.300          43.800
 116033540.984 6  90415848.66346  86648523.422 8  22080461.180
  22080469.406    22080470.711          39.600          41.400          49.400
 113967133.640 6  88641023.216 6                  21349858.875    21349857.648
  21349863.230                          38.800          41.600
 119802899.828 6  93180049.069 6                  22403750.641    22403750.695
  22403755.000                          36.300          38.300
 106396239.872 7  82752522.299 7                  19882651.758    19882650.691
  19882655.348                          43.700          44.800
 112703705.050 7  87821078.54245                  21446795.266
  21446800.160                          43.200          33.200
 113535112.117 6  88468922.03744                  21605010.977
  21605015.871                          40.500          28.000
 123281594.303 5  95885707.802 5                  23102917.336    23102915.184
  23102921.469                          34.200          34.600
 119705821.344 6  93277303.67846  89390747.788 7  22779264.633
  22779272.840    22779273.328          37.500          36.100          46.900
 106965359.890 7  83349704.20648  79876792.188 8  20354840.742
  20354849.773    20354848.359          44.600          49.900          53.000
 115570914.607 6  89888511.936 6                  21680815.148    21680812.734
  21680818.969                          39.500          40.500
 114239427.329 7  89017739.62045                  21739033.250
  21739036.332                          43.700          33.400
 117735738.642 5  91572172.870 5                  22040359.578    22040357.961
  22040362.008                          32.300          33.700
 104870752.435 7  81566050.461 7                  19625104.438    19625104.570
  19625108.867                          45.100          45.600
 127024666.566 7                  94856100.590 8  24171990.766
                  24171996.555          44.800                          48.800
 124767682.461 7                  93170686.318 8  23742500.734
                  23742505.543          46.000                          50.100
 143876367.928 5                 107440159.544 6  27378765.727
                  27378772.293          34.700                          41.000
 125259427.964 5                  93537901.197 6  23836075.906
                  23836080.996          32.000                          40.100
 121989106.368 7                  91095790.189 8  23213752.508
                  23213757.125          45.000                          48.200
 20  8 16  0  0  8.0000000  0 22R01G17G07G08G03R18R24R17G28G11R02G30
                                G01R14G22R16R15E36E02E25E14E30
 122429394.357 5  95223008.368 4                  22902978.625    22902977.430
  22902985.461                          30.400          28.700
 122091798.269 6  95136370.76745                  23233265.133
  23233270.551                          36.000          34.300
 124464735.980 5  96985566.84344                  23684865.008
  23684870.840                          33.000          29.200
 123721308.508 6  96406228.22243  92389293.749 7  23543381.758
  23543389.945    23543389.219          36.000          21.700          43.800
 116030985.805 6  90413857.62346  86646615.347 8  22079974.844
  22079983.039    22079984.355          39.700          41.600          49.300
 113965380.755 6  88639659.862 6                  21349530.117    21349529.180
  21349534.879                          38.800          41.200
 119805740.621 6  93182258.563 6                  22404281.438    22404281.992
  22404286.410                          36.400          37.900
 106397017.838 7  82753127.404 7                  19882797.141    19882796.059
  19882800.656                          43.800          45.100
 112701687.567 7  87819506.46845                  21446411.055
  21446416.133                          42.800          32.800
 113537445.891 6  88470740.56044                  21605455.836
  21605460.063                          40.800          28.300
 123278266.883 5  95883119.816 5                  23102294.328    23102291.988
  23102297.875                          34.100          35.200
 119708046.123 6  93279037.27545  89392409.151 7  22779688.758
  22779696.383    22779696.645          37.400          35.900          47.000
 106966940.839 7  83350936.11648  79877972.761 8  20355142.234
  20355150.520    20355149.180          44.800          49.900          52.700
 115574993.525 6  89891684.421 6                  21681579.141    21681577.953
  21681584.133                          39.400          40.900
 114238610.613 7  89017103.22945                  21738877.672
  21738880.730                          42.900          33.600
 117732662.608 5  91569780.439 5                  22039783.695    22039782.355
  22039786.164                          32.600          34.000
 104871538.948 7  81566662.197 7                  19625251.516    19625251.805
  19625256.137                          45.200          45.900
 127026260.621 7                  94857290.940 8  24172294.031
                  24172300.012          44.600                          48.800
 124769219.341 7                  93171833.995 8  23742793.234
                  23742797.984          46.100                          50.200
 143879420.262 5                 107442438.845 6  27379346.391
                  27379353.098          35.100                          40.700
 125253346.044 5                  93533359.542 6  23834918.750
                  23834923.664          31.800                          39.800
 121987856.355 7                  91094856.745 8  23213514.648
                  23213519.254          45.100                          48.300
 20  8 16  0  0  9.0000000  0 22R01G17G07G08G03R18R24R17G28G11R02G30
                                G01R14G22R16R15E36E02E25E14E30
 122429215.004 4  95222868.867 4                  22902945.313    22902944.059
  22902951.910                          29.500          28.700
 122089781.240 6  95134799.05845                  23232880.820
  23232886.805                          36.000          33.500
 124467883.049 5  96988019.08845                  23685463.313
  23685469.730                          33.700          30.000
 123723636.506 5  96408042.25843  92391032.184 7  23543824.148
  23543832.934    23543832.160          35.900          21.700          43.800
 116028431.026 6  90411866.88446  86644707.568 8  22079489.383
  22079497.129    22079498.059          40.100          41.400          48.900
 113963628.178 6  88638296.750 6                  21349201.563    21349201.070
  21349206.629                          39.000          41.200
 119808581.417 6  93184468.041 6                  22404813.266    22404813.328
  22404817.605                          36.900          38.300
 106397796.089 7  82753732.714 7                  19882942.328    19882941.418
  19882946.207                          44.000          45.100
 112699670.396 7  87817934.66245                  21446028.063
  21446032.230                          43.100          32.800
 113539779.854 6  88472559.22444                  21605899.742
  21605904.121                          40.900          27.100
 123274939.702 5  95880532.012 5                  23101669.898    23101668.219
  23101674.563                          33.700          34.900
 119710271.237 6  93280771.13045  89394070.755 7  22780111.805
  22780119.777    22780120.176          36.800          35.400          46.700
 106968522.246 7  83352168.38048  79879153.680 8  20355442.742
  20355451.445    20355450.219          44.700          49.900          52.700
 115579072.779 6  89894857.166 6                  21682344.289    21682343.266
  21682349.492                          39.200          40.800
 114237794.526 7  89016467.31145                  21738722.242
  21738725.414                          43.200          34.200
 117729587.203 5  91567388.453 5                  22039208.094    22039206.727
  22039210.555                          31.400          34.100
 104872326.344 7  81567274.611 7                  19625398.977    19625399.070
  19625403.500                          45.300          46.000
 127027854.720 7                  94858481.375 8  24172597.750
                  24172603.273          44.400                          48.200
 124770756.603 7                  93172981.950 8  23743085.875
                  23743090.504          46.400                          50.200
 143882472.645 5                 107444718.219 6  27379927.188
                  27379934.066          34.500                          40.600
 125247264.161 5                  93528817.872 6  23833761.227
                  23833766.047          32.000                          39.200
 121986606.742 7                  91093923.570 8  23213276.563
                  23213281.613          45.100                          48.500
 20  8 16  0  0 10.0000000  0 22R01G17G07G08G03R18R24R17G28G11R02G30
                                G01R14G22R16R15E36E02E25E14E30
 122429036.527 5  95222730.071 4                  22902912.281    22902910.793
  22902918.563                          30.400          29.300
 122087764.316 5  95133227.41545                  23232497.914
  23232502.969                          35.500          33.700
 124471030.310 5  96990471.49844                  23686062.219
  23686068.363                          34.000          29.600
 123725964.622 6  96409856.38443  92392770.708 7  23544267.531
  23544276.133    23544275.016          36.400          21.100          43.600
 116025876.733 6  90409876.52646  86642800.123 8  22079003.828
  22079010.988    22079012.094          40.000          41.100          48.800
 113961875.951 6  88636933.893 6                  21348873.961    21348872.570
  21348878.371                          39.400          41.100
 119811422.180 6  93186677.520 6                  22405344.281    22405344.277
  22405348.926                          36.400          38.200
 106398574.645 7  82754338.241 7                  19883088.273    19883086.664
  19883091.742                          44.300          45.200
 112697653.617 7  87816363.14545                  21445643.938
  21445648.367                          42.900          33.000
 113542114.066 6  88474378.09544                  21606343.820
  21606348.219                          40.700          26.700
 123271612.763 5  95877944.389 5                  23101045.867    23101044.430
  23101051.137                          33.700          34.800
 119712496.791 6  93282505.32445  89395732.681 7  22780535.430
  22780543.117    22780543.625          37.200          35.900          46.800
 106970104.167 7  83353401.04948  79880334.987 8  20355744.211
  20355752.758    20355751.090          44.700          49.900          52.600
 115583152.402 6  89898030.237 6                  21683110.094    21683108.500
  21683114.949                          39.900          40.700
 114236979.041 7  89015831.87145                  21738566.828
  21738570.191                          43.200          33.800
 117726512.421 5  91564996.959 5                  22038632.164    22038631.465
  22038634.879                          32.100          33.800
 104873114.720 7  81567887.798 7                  19625546.680    19625546.492
  19625550.992                          45.200          46.300
 127029449.031 7                  94859671.909 8  24172900.727
                  24172906.617          44.900                          48.100
 124772294.324 7                  93174130.237 8  23743378.500
                  23743383.227          46.300                          50.100
 143885525.168 5                 107446997.704 6  27380508.070
                  27380514.969          35.300                          40.600
 125241182.290 5                  93524276.185 6  23832604.070
                  23832608.934          32.200                          39.600
 121985357.539 7                  91092990.732 8  23213038.914
                  23213043.820          44.900                          48.400
 20  8 16  0  0 11.0000000  0 22R01G17G07G08G03R18R24R17G28G11R02G30
                                G01R14G22R16R15E36E02E25E14E30
 122428858.837 5  95222591.882 5                  22902879.484    22902878.203
  22902885.445                          30.500          30.600
 122085747.399 5  95131655.79645                  23232112.984
  23232119.047                          35.500          33.200
 124474177.664 5  96992923.99245                  23686661.406
  23686667.305                          34.300          30.000
 123728292.841 6  96411670.58043  92394509.306 7  23544710.570
  23544719.203    23544718.098          36.200          22.000          43.900
 116023322.862 6  90407886.49746  86640893.035 8  22078517.219
  22078525.086    22078525.988          40.200          41.300          48.500
 113960124.049 6  88635571.289 6                  21348544.938    21348544.176
  21348550.137                          38.900          40.900
 119814263.002 6  93188887.057 6                  22405874.797    22405875.059
  22405880.133                          36.500          38.400
 106399353.455 7  82754943.991 7                  19883233.742    19883232.320
  19883237.254                          44.200          45.700
 112695637.156 7  87814791.86845                  21445259.477
  21445264.688                          42.900          32.900
 113544448.514 6  88476197.14544                  21606787.305
  21606792.539                          40.600          27.300
 123268286.121 5  95875357.003 5                  23100422.867    23100421.031
  23100427.711                          33.800          34.900
 119714722.666 6  93284239.76945  89397394.874 7  22780958.703
  22780966.914    22780967.059          37.100          35.500          46.800
 106971686.562 7  83354634.08148  79881516.652 8  20356045.203
  20356053.746    20356052.285          45.100          50.100          52.900
 115587232.405 6  89901203.568 6                  21683875.594    21683873.762
  21683880.301                          40.100          40.800
 114236164.180 7  89015196.90945                  21738411.484
  21738415.230                          43.200          33.600
 117723438.160 5  91562605.885 5                  22038057.398    22038056.285
  22038059.344                          32.200          34.100
 104873904.038 7  81568501.710 7                  19625694.047    19625694.383
  19625698.660                          45.400          46.100
 127031043.457 7                  94860862.565 8  24173204.320
                  24173210.090          45.100                          48.100
 124773832.447 7                  93175278.842 8  23743671.094
                  23743675.852          46.100                          50.300
 143888577.800 5                 107449277.270 6  27381088.961
                  27381095.926          34.900                          40.200
 125235100.413 5                  93519734.528 6  23831446.688
                  23831451.543          32.000                          39.700
 121984108.729 7                  91092058.184 8  23212801.555
                  23212806.141          45.100                          48.400
 20  8 16  0  0 12.0000000  0 22R01G17G07G08G03R18R24R17G28G11R02G30
                                G01R14G22R16R15E36E02E25E14E30
 122428682.056 4  95222454.321 4                  22902846.016    22902844.910
  22902852.477                          29.600          28.200
 122083730.658 5  95130084.30745                  23231729.461
  23231735.254                          35.800          33.500
 124477325.108 5  96995376.54344                  23687260.680
  23687266.152                          34.400          28.500
 123730621.186 5  96413484.88843  92396247.979 7  23545152.898
  23545162.410    23545161.203          35.900          21.800          43.800
 116020769.465 6  90405896.83946  86638986.256 8  22078030.906
  22078039.207    22078040.176          40.200          41.500          48.700
 113958372.462 6  88634208.964 6                  21348217.008    21348216.289
  21348221.906                          38.900          41.400
 119817103.839 6  93191096.579 6                  22406406.891    22406406.453
  22406411.332                          36.200          38.500
 106400132.592 7  82755549.984 7                  19883378.836    19883377.832
  19883382.824                          44.500          45.700
 112693621.034 7  87813220.86345                  21444876.391
  21444881.121                          43.000          33.000
 113546783.224 6  88478016.40644                  21607231.977
  21607236.941                          40.700          28.200
 123264959.648 5  95872769.735 5                  23099800.000    23099797.656
  23099804.395                          33.900          35.500
 119716948.974 6  93285974.56045  89399057.387 7  22781382.391
  22781390.539    22781390.828          37.200          35.400          46.800
 106973269.459 7  83355867.51248  79882698.691 8  20356346.953
  20356354.863    20356353.480          45.300          50.000          53.000
 115591312.801 6  89904377.173 6                  21684639.445    21684639.234
  21684645.848                          40.400          40.900
 114235349.914 7  89014562.42345                  21738257.266
  21738260.449                          43.300          34.200
 117720364.534 5  91560215.248 5                  22037481.258    22037480.422
  22037483.848                          32.100          34.100
 104874694.261 7  81569116.324 7                  19625842.148    19625842.012
  19625846.488                          45.400          46.200
 127032638.035 7                  94862053.311 7  24173507.828
                  24173513.430          45.000                          47.900
 124775370.999 7                  93176427.756 8  23743963.930
                  23743968.691          46.200                          50.100
 143891630.538 5                 107451556.914 6  27381670.039
                  27381676.891          35.100                          40.600
 125229018.577 5                  93515192.878 6  23830289.211
                  23830294.289          32.300                          39.900
 121982860.368 7                  91091125.954 8  23212563.875
                  23212568.684          45.000                          48.300
 20  8 16  0  0 13.0000000  0 22R01G17G07G08G03R18R24R17G28G11R02G30
                                G01R14G22R16R15E36E02E25E14E30
 122428506.018 5  95222317.407 4                  22902812.852    22902812.270
  22902819.504                          30.100          28.700
 122081713.841 5  95128512.76345                  23231345.375
  23231351.395                          35.700          33.200
 124480472.653 5  96997829.16645                  23687859.297
  23687865.109                          34.600          30.400
 123732949.534 6  96415299.17943  92397986.732 7  23545596.258
  23545605.461    23545604.270          36.000          21.300          43.900
 116018216.455 6  90403907.47846  86637079.786 8  22077545.367
  22077553.324    22077554.293          40.100          41.400          48.700
 113956621.207 6  88632846.860 6                  21347889.930    21347888.297
  21347893.844                          38.800          41.400
 119819944.592 5  93193306.074 6                  22406938.500    22406937.824
  22406942.602                          35.600          38.100
 106400912.004 7  82756156.198 7                  19883524.609    19883523.555
  19883528.434                          44.400          45.400
 112691605.199 7  87811650.08645                  21444492.742
  21444497.535                          43.100          33.000
 113549118.096 6  88479835.78644                  21607676.445
  21607681.203                          40.800          27.400
 123261633.412 5  95870182.698 5                  23099175.836    23099174.727
  23099180.977                          33.700          35.800
 119719175.630 6  93287709.61145  89400720.139 7  22781806.148
  22781814.375    22781814.742          37.300          35.400          46.800
 106974852.806 7  83357101.29248  79883881.051 8  20356647.758
  20356656.328    20356654.777          45.700          50.000          52.900
 115595393.496 6  89907551.049 6                  21685405.641    21685404.840
  21685411.305                          40.100          41.100
 114234536.245 7  89013928.39345                  21738102.672
  21738105.445                          43.700          33.600
 117717291.457 5  91557825.119 5                  22036905.547    22036904.711
  22036908.570                          31.900          34.200
 104875485.335 7  81569731.600 7                  19625990.727    19625990.074
  19625994.570                          45.000          46.200
 127034232.690 7                  94863244.137 8  24173811.172
                  24173816.879          45.100                          48.000
 124776909.926 7                  93177576.965 8  23744256.852
                  23744261.617          46.500                          50.400
 143894683.387 5                 107453836.638 6  27382250.922
                  27382257.746          35.300                          41.000
 125222936.660 5                  93510651.218 6  23829131.789
                  23829136.953          32.300                          40.000
 121981612.338 7                  91090193.989 8  23212326.516
                  23212331.184          44.800                          48.300
 20  8 16  0  0 14.0000000  0 22R01G17G07G08G03R18R24R17G28G11R02G30
                                G01R14G22R16R15E36E02E25E14E30
 122428330.719 5  95222181.078 4                  22902780.586    22902779.836
  22902786.629                          30.500          29.300
 122079697.120 5  95126941.29845                  23230961.883
  23230967.531                          35.900          33.800
 124483620.290 5  97000281.87245                  23688459.227
  23688464.082                          34.900          30.000
 123735278.052 5  96417113.59743  92399725.542 7  23546039.000
  23546048.508    23546047.457          35.400          20.900          44.200
 116015663.840 6  90401918.43446  86635173.632 8  22077060.305
  22077067.660    22077068.770          40.000          41.500          48.400
 113954870.218 6  88631484.978 6                  21347561.906    21347560.730
  21347565.922                          38.300          41.800
 119822785.317 5  93195515.520 6                  22407469.383    22407468.914
  22407473.754                          35.600          37.900
 106401691.723 7  82756762.646 7                  19883671.180    19883669.434
  19883674.180                          44.300          44.900
 112689589.718 7  87810079.58345                  21444108.852
  21444113.953                          42.800          32.400
 113551453.217 6  88481655.35644                  21608120.609
  21608125.539                          40.700          27.400
 123258307.429 5  95867595.814 5                  23098552.500    23098550.996
  23098557.852                          33.700          35.600
 119721402.668 6  93289444.97146  89402383.182 7  22782229.602
  22782237.949    22782238.270          36.900          36.100          46.700
 106976436.634 7  83358335.44148  79885063.786 8  20356949.461
  20356957.570    20356956.227          45.100          50.000          53.000
 115599474.527 6  89910725.193 6                  21686171.688    21686170.449
  21686176.980                          40.100          41.400
 114233723.158 7  89013294.82045                  21737947.375
  21737950.707                          43.200          33.100
 117714218.951 5  91555435.401 5                  22036331.828    22036329.281
  22036333.531                          31.800          34.600
 104876277.299 7  81570347.580 7                  19626138.477    19626138.125
  19626142.859                          45.100          46.200
 127035827.469 7                  94864435.036 8  24174114.508
                  24174120.539          45.200                          48.200
 124778449.263 7                  93178726.460 8  23744549.836
                  23744554.539          46.300                          50.500
 143897736.326 5                 107456116.428 6  27382832.141
                  27382838.621          35.700                          40.500
 125216854.750 5                  93506109.539 6  23827974.344
                  23827979.492          31.700                          39.700
 121980364.718 7                  91089262.333 8  23212089.016
                  23212093.691          44.600                          48.600
 20  8 16  0  0 15.0000000  0 22R01G17G07G08G03R18R24R17G28G11R02G30
                                G01R14G22R16R15E36E02E25E14E30
 122428156.292 5  95222045.404 4                  22902746.766    22902747.121
  22902754.070                          30.500          28.300
 122077680.464 6  95125369.87545                  23230577.711
  23230583.754                          36.900          33.700
 124486768.017 5  97002734.64944                  23689058.500
  23689063.238                          34.600          29.800
 123737606.690 5  96418928.09943  92401464.465 7  23546482.609
  23546491.395    23546490.625          35.300          20.900          44.300
 116013111.730 6  90399929.78246  86633267.827 8  22076574.367
  22076582.266    22076583.035          40.100          41.400          48.300
 113953119.574 6  88630123.369 6                  21347233.422    21347232.395
  21347237.840                          38.800          41.300
 119825626.123 5  93197725.042 6                  22407999.867    22407999.875
  22408005.031                          35.500          37.000
 106402471.719 7  82757369.311 7                  19883816.602    19883815.105
  19883819.758                          44.000          45.000
 112687574.572 7  87808509.34445                  21443725.508
  21443730.531                          43.000          32.100
 113553788.540 6  88483475.08644                  21608565.336
  21608569.926                          41.100          28.200
 123254981.675 5  95865009.138 5                  23097928.188    23097927.559
  23097934.672                          33.400          35.800
 119723630.085 6  93291180.61745  89404046.527 7  22782653.883
  22782661.777    22782662.180          36.900          35.700          46.700
 106978020.970 7  83359569.99048  79886246.889 8  20357250.859
  20357259.086    20357257.750          45.400          49.900          52.700
 115603555.941 6  89913899.608 6                  21686936.883    21686936.328
  21686942.668                          40.200          41.000
 114232910.721 7  89012661.75345                  21737792.969
  21737796.117                          43.300          33.600
 117711147.116 5  91553046.146 5                  22035755.586    22035754.082
  22035758.652                          31.200          33.800
 104877070.223 7  81570964.304 7                  19626286.781    19626286.617
  19626291.219                          45.600          46.200
 127037422.403 7                  94865626.065 8  24174417.945
                  24174423.898          45.000                          48.300
 124779989.040 7                  93179876.296 8  23744842.734
                  23744847.516          46.100                          50.100
 143900789.358 5                 107458396.323 6  27383412.945
                  27383419.660          35.400                          40.400
 125210772.901 5                  93501567.891 6  23826817.523
                  23826822.273          33.300                          39.600
 121979117.515 7                  91088330.982 8  23211851.609
                  23211856.488          44.800                          48.300
 20  8 16  0  0 16.0000000  0 22R01G17G07G08G03R18R24R17G28G11R02G30
                                G01R14G22R16R15E36E02E25E14E30
 122427982.634 5  95221910.355 4                  22902713.836    22902714.281
  22902721.563                          30.300          28.900
 122075663.918 6  95123798.54745                  23230194.703
  23230200.070                          36.000          33.500
 124489915.854 5  97005187.50745                  23689656.180
  23689662.223                          34.700          30.200
 123739935.484 6  96420742.75143  92403203.466 7  23546926.031
  23546934.527    23546933.848          36.200          20.100          44.100
 116010560.037 6  90397941.45246  86631362.348 8  22076088.758
  22076096.641    22076097.402          40.600          40.900          48.500
 113951369.210 6  88628761.966 6                  21346905.758    21346904.602
  21346909.953                          38.800          41.500
 119828466.935 5  93199934.587 6                  22408531.758    22408531.199
  22408536.234                          35.600          37.600
 106403251.993 7  82757976.188 7                  19883961.625    19883960.871
  19883965.504                          44.000          45.300
 112685559.756 7  87806939.35145                  21443342.523
  21443346.945                          43.000          32.800
 113556124.131 6  88485295.03144                  21609010.305
  21609014.488                          41.400          27.300
 123251656.175 5  95862422.656 6                  23097305.492    23097304.207
  23097311.648                          33.200          36.000
 119725857.895 6  93292916.57545  89405710.142 7  22783078.719
  22783085.703    22783085.934          36.800          35.700          46.900
 106979605.783 7  83360804.90848  79887430.356 8  20357552.023
  20357560.691    20357559.273          45.100          49.800          52.700
 115607637.689 6  89917074.321 6                  21687703.078    21687702.133
  21687708.313                          40.400          41.100
 114232098.898 7  89012029.16645                  21737638.398
  21737641.633                          42.900          33.500
 117708075.850 5  91550657.389 5                  22035179.797    22035178.961
  22035183.621                          31.600          33.700
 104877864.076 7  81571581.742 7                  19626434.992    19626435.168
  19626439.855                          46.000          46.100
 127039017.482 7                  94866817.183 7  24174721.758
                  24174727.496          44.900                          47.900
 124781529.218 7                  93181026.433 8  23745135.766
                  23745140.531          45.600                          50.300
 143903842.545 5                 107460676.254 6  27383994.039
                  27384000.590          35.400                          40.600
 125204691.066 5                  93497026.237 6  23825660.648
                  23825664.898          31.500                          39.100
 121977870.730 7                  91087399.947 8  23211614.328
                  23211619.184          44.900                          48.100
 20  8 16  0  0 17.0000000  0 22R01G17G07G08G03R18R24R17G28G11R02G30
                                G01R14G22R16R15E36E02E25E14E30
 122427809.769 5  95221775.908 4                  22902681.453    22902682.129
  22902689.125                          30.100          28.400
 122073647.291 6  95122227.15145                  23229810.641
  23229816.137                          36.200          34.100
 124493063.809 5  97007640.45145                  23690255.570
  23690261.313                          35.000          30.400
 123742264.326 5  96422557.44843  92404942.552 7  23547368.352
  23547377.766    23547376.910          35.300          20.100          44.300
 116008008.777 6  90395953.45646  86629457.187 8  22075602.633
  22075611.082    22075611.902          40.800          41.000          48.500
 113949619.152 6  88627400.836 6                  21346576.602    21346576.617
  21346582.094                          39.000          41.800
 119831307.753 6  93202144.080 6                  22409062.156    22409062.488
  22409067.434                          36.000          37.600
 106404032.566 7  82758583.301 7                  19884107.742    19884106.855
  19884111.402                          44.000          45.400
 112683545.307 7  87805369.65945                  21442959.297
  21442963.895                          43.300          33.100
 113558459.951 6  88487115.15944                  21609454.781
  21609458.832                          41.300          27.600
 123248330.924 5  95859836.319 5                  23096681.688    23096680.758
  23096688.531                          33.400          35.800
 119728086.076 6  93294652.81045  89407374.039 7  22783501.594
  22783509.918    22783509.938          37.400          35.900          46.700
 106981191.077 7  83362040.19748  79888614.178 8  20357853.734
  20357862.363    20357860.969          45.000          49.900          52.700
 115611719.837 6  89920249.320 6                  21688468.344    21688467.891
  21688474.086                          40.300          40.700
 114231287.671 7  89011397.03945                  21737483.555
  21737487.172                          42.400          33.700
 117705005.179 5  91548269.096 5                  22034605.469    22034604.117
  22034608.887                          31.800          34.100
 104878658.832 7  81572199.878 7                  19626584.094    19626583.785
  19626588.508                          45.800          46.000
 127040612.685 7                  94868008.399 8  24175025.336
                  24175031.043          44.900                          48.200
 124783069.822 7                  93182176.887 8  23745429.086
                  23745433.723          45.700                          50.600
 143906895.819 5                 107462956.294 6  27384574.734
                  27384581.703          34.800                          40.300
 125198609.179 5                  93492484.595 6  23824502.711
                  23824507.621          31.700                          38.900
 121976624.336 7                  91086469.189 8  23211376.875
                  23211382.020          45.100                          48.200
 20  8 16  0  0 18.0000000  0 22R01G17G07G08G03R18R24R17G28G11R02G30
                                G01R14G22R16R15E36E02E25E14E30
 122427637.704 5  95221642.072 4                  22902650.688    22902650.402
  22902656.922                          30.200          29.400
 122071630.869 5  95120655.91345                  23229426.672
  23229432.168                          35.500          34.100
 124496211.831 5  97010093.46344                  23690854.500
  23690860.359                          34.300          29.000
 123744593.328 5  96424372.24043  92406681.728 7  23547811.391
  23547821.039    23547820.184          34.800          20.400          44.000
 116005457.934 6  90393965.79446  86627552.344 8  22075117.375
  22075125.766    22075126.512          40.900          41.300          48.500
 113947869.439 6  88626039.941 6                  21346250.430    21346249.188
  21346254.246                          38.900          41.700
 119834148.554 5  93204353.578 6                  22409594.047    22409593.922
