     2.11           OBSERVATION DATA    M (MIXED)           RINEX VERSION / TYPE
teqc  2016Nov7      KASI/KOREA          20200816 01:03:01UTCPGM / RUN BY / DATE
Linux 2.4.20-8|Pentium IV|gcc|Linux|486/DX+                 COMMENT
  0.0000      (antenna height)                              COMMENT
 +36.39942714 (latitude)                                    COMMENT
+127.37448264 (longitude)                                   COMMENT
0116.859      (elevation)                                   COMMENT
BIT 2 OF LLI FLAGS DATA COLLECTED UNDER A/S CONDITION       COMMENT
23902M002 (COGO code)                                       COMMENT
DAEJ                                                        MARKER NAME
23902M002                                                   MARKER NUMBER
KASI GPS            KASI/KOREA                              OBSERVER / AGENCY
5412K48145          TRIMBLE NETR9       5.44                REC # / TYPE / VERS
4923363230          TRM59800.00     SCIS                    ANT # / TYPE
 -3120043.1527  4084613.7158  3764026.4700                  APPROX POSITION XYZ
        0.0000        0.0000        0.0000                  ANTENNA: DELTA H/E/N
     1     1                                                WAVELENGTH FACT L1/2
    10    L1    L2    L5    C1    P1    P2    C5    S1    S2# / TYPES OF OBSERV
          S5                                                # / TYPES OF OBSERV
    18                                                      LEAP SECONDS
 SNR is mapped to RINEX snr flag value [0-9]                COMMENT
  L1 & L2: min(max(int(snr_dBHz/6), 0), 9)                  COMMENT
  2020     8    16     0    45    0.0000000     GPS         TIME OF FIRST OBS
                                                            END OF HEADER
 20  8 16  0 45  0.0000000  0 21R01G17G08G03R18G06R17G28G11G19R02G30
                                G01G22R16R15E36E02E14E15E30
 124847713.065 5  97103923.119 4                  23355374.242    23355374.410
  23355381.320                          30.100          29.500
 116852385.885 6  91053713.42446                  22236236.273
  22236241.707                          39.600          40.700
 130351225.38814                  97340201.526 6  24805014.508
                  24805023.660          25.900                          36.700
 111020933.542 7  86509921.99747  82905344.065 8  21126593.383
  21126601.047    21126602.027          42.900          46.700          51.400
 110278360.042 7  85771978.348 7                  20658825.688    20658825.445
  20658830.492                          42.100          42.600
 126861113.211 5  98852819.55144  94733951.118 7  24140857.133
  24140866.273    24140867.262          31.900          27.700          42.500
 109338240.672 7  85040745.096 7                  20432434.133    20432434.191
  20432438.375                          43.000          42.900
 108691124.336 7  84694392.33845                  20683226.438
  20683231.164                          43.200          35.500
 120467980.543 5  93871155.30443                  22924293.758
  22924298.570                          35.600          19.600
 123489618.710 5  96225755.36543                  23499308.563
  23499313.121                          34.000          19.900
 115674977.952 6  89969453.928 6                  21677437.148    21677436.273
  21677442.383                          38.500          39.400
 126684170.779 5  98714976.40644  94601850.266 7  24107202.711
  24107211.027    24107211.406          32.300          28.400          42.900
 112660023.179 7  87787103.97645  84129300.235 8  21438499.742
  21438508.270    21438507.230          42.200          31.500          50.200
 114292139.592 7  89058814.85745                  21749063.117
  21749066.113                          42.200          33.800
 111969790.690 5  87087547.410 6                  20960960.500    20960960.359
  20960963.402                          35.300          37.000
 110038937.131 7  85585748.944 7                  20592260.672    20592259.902
  20592264.695                          42.700          43.100
 131633045.583 6                  98297422.239 7  25048936.477
                  25048942.363          41.900                          45.300
 130259399.375 7                  97271642.922 7  24787540.867
                  24787545.078          44.000                          47.800
 109303617.275 6                  81622850.347 7  20799785.406
                  20799789.293          41.400                          45.700
 136592433.086 6                 102000869.678 7  25992675.555
                  25992681.887          38.400                          42.300
 120182189.780 7                  89746469.020 8  22869907.805
                  22869912.863          46.300                          49.800
 20  8 16  0 45  1.0000000  0 21R01G17G08G03R18G06R17G28G11G19R02G30
                                G01G22R16R15E36E02E14E15E30
 124849657.665 5  97105435.593 4                  23355738.750    23355738.289
  23355745.070                          30.600          29.800
 116850518.619 6  91052258.41646                  22235880.906
  22235886.367                          39.700          40.600
 130353824.05214                  97342142.112 6  24805507.570
                  24805518.602          27.300                          36.800
 111019868.977 7  86509092.46347  82904549.095 8  21126391.258
  21126398.441    21126399.469          42.600          46.800          51.300
 110277338.737 7  85771183.992 7                  20658634.695    20658633.777
  20658639.000                          42.200          43.000
 126858216.175 5  98850562.11844  94731787.756 7  24140306.359
  24140314.930    24140315.895          33.000          28.900          42.600
 109339591.535 7  85041795.770 7                  20432687.719    20432686.480
  20432690.766                          42.900          43.000
 108690248.658 7  84693709.99246                  20683059.859
  20683064.652                          43.000          36.000
 120470747.644 5  93873311.53143                  22924820.305
  22924825.219                          34.800          19.600
 123486895.553 5  96223633.46343                  23498790.219
  23498794.871                          33.700          19.900
 115672849.627 6  89967798.557 6                  21677037.914    21677037.367
  21677043.449                          38.100          39.400
 126686991.026 5  98717173.98644  94603956.346 7  24107739.953
  24107747.711    24107748.219          32.400          29.600          42.600
 112662565.755 7  87789085.20745  84131198.926 8  21438983.984
  21438992.164    21438990.941          42.300          32.300          50.100
 114293000.105 7  89059485.38545                  21749226.555
  21749229.832                          42.400          33.500
 111968712.275 5  87086708.619 6                  20960759.539    20960758.172
  20960761.617                          35.700          37.000
 110041868.874 7  85588029.174 7                  20592809.297    20592808.891
  20592813.305                          42.900          43.400
 131634834.467 7                  98298758.087 7  25049276.852
                  25049282.840          42.000                          45.500
 130261888.170 7                  97273501.428 8  24788014.188
                  24788018.551          44.400                          48.000
 109298044.023 6                  81618688.507 7  20798724.000
                  20798728.723          41.300                          45.500
 136590693.394 6                 101999570.564 7  25992344.641
                  25992350.781          38.900                          42.200
 120182136.676 7                  89746429.365 8  22869897.523
                  22869902.836          46.000                          49.900
 20  8 16  0 45  2.0000000  0 21R01G17G08G03R18G06R17G28G11G19R02G30
                                G01G22R16R15E36E02E14E15E30
 124851603.018 4  97106948.700 5                  23356103.234    23356102.020
  23356109.000                          29.900          30.300
 116848651.428 6  91050803.45546                  22235525.719
  22235530.965                          40.200          40.600
 130356422.86514                  97344082.783 6  24806002.977
                  24806013.063          26.800                          36.600
 111018805.059 7  86508263.43747  82903754.607 8  21126188.695
  21126196.004    21126196.996          42.700          46.900          51.300
 110276317.676 7  85770389.829 7                  20658444.008    20658442.766
  20658447.711                          42.100          43.100
 126855319.334 5  98848304.86344  94729624.564 7  24139755.164
  24139763.602    24139764.879          32.200          27.700          42.400
 109340942.545 7  85042846.557 7                  20432940.047    20432939.047
  20432943.332                          42.700          43.500
 108689373.486 7  84693028.04046                  20682893.273
  20682898.109                          43.000          36.300
 120473514.818 5  93875467.75143                  22925347.305
  22925351.758                          35.400          19.300
 123484172.474 5  96221511.57543                  23498271.945
  23498276.898                          34.000          20.400
 115670721.986 6  89966143.701 6                  21676638.266    21676638.547
  21676644.676                          38.300          39.300
 126689811.404 5  98719371.68644  94606062.497 7  24108276.375
  24108284.363    24108285.098          32.200          28.300          43.000
 112665108.610 7  87791066.64345  84133097.788 8  21439467.906
  21439475.992    21439474.949          42.100          32.600          50.000
 114293861.200 7  89060156.37645                  21749390.211
  21749393.824                          42.400          33.300
 111967634.731 5  87085870.511 6                  20960556.773    20960557.012
  20960560.000                          35.400          37.000
 110044801.285 7  85590309.939 7                  20593357.875    20593357.633
  20593362.047                          42.800          43.300
 131636623.426 7                  98300093.964 7  25049616.984
                  25049623.223          42.000                          45.800
 130264377.248 7                  97275360.160 8  24788487.656
                  24788492.113          44.400                          48.000
 109292471.185 6                  81614526.969 7  20797663.859
                  20797668.438          41.500                          45.500
 136588953.838 6                 101998271.553 7  25992013.414
                  25992019.762          39.100                          42.300
 120182084.049 7                  89746390.062 8  22869887.516
                  22869892.930          45.700                          50.000
 20  8 16  0 45  3.0000000  0 21R01G17G08G03R18G06R17G28G11G19R02G30
                                G01G22R16R15E36E02E14E15E30
 124853549.153 4  97108462.278 4                  23356467.266    23356466.520
  23356473.145                          29.800          29.800
 116846784.288 6  91049348.54346                  22235170.672
  22235175.719                          40.200          40.600
 130359021.869 4                  97346023.525 6  24806499.641
                  24806507.621          28.300                          36.500
 111017741.788 7  86507434.90847  82902960.603 8  21125985.844
  21125993.746    21125994.703          42.700          46.800          51.600
 110275296.780 6  85769595.812 7                  20658252.156    20658251.277
  20658256.453                          41.800          43.200
 126852422.739 5  98846047.77544  94727461.516 7  24139204.031
  24139212.566    24139213.332          31.600          27.500          42.200
 109342293.714 7  85043897.468 7                  20433192.406    20433191.305
  20433195.781                          42.600          43.400
 108688498.836 7  84692346.50446                  20682727.039
  20682731.531                          43.100          36.300
 120476282.119 6  93877624.07643                  22925872.945
  22925878.445                          36.200          20.100
 123481449.445 5  96219389.72443                  23497753.625
  23497758.594                          33.900          20.900
 115668594.981 6  89964489.372 6                  21676240.438    21676239.813
  21676246.109                          38.700          39.600
 126692631.888 5  98721569.46944  94608168.673 7  24108812.484
  24108821.129    24108821.645          32.000          27.000          43.000
 112667651.675 7  87793048.25645  84134996.848 8  21439951.328
  21439959.898    21439958.820          42.400          32.700          50.000
 114294722.955 7  89060827.87145                  21749554.398
  21749557.680                          42.300          33.500
 111966558.038 5  87085033.115 6                  20960355.563    20960355.352
  20960358.430                          35.400          37.300
 110047734.323 7  85592591.188 7                  20593906.727    20593906.289
  20593910.977                          43.000          43.300
 131638412.370 7                  98301429.879 7  25049957.969
                  25049963.668          42.100                          45.500
 130266866.612 7                  97277219.107 8  24788961.383
                  24788965.855          44.200                          48.100
 109286898.818 6                  81610365.796 7  20796603.422
                  20796607.848          41.400                          45.300
 136587214.445 6                 101996972.641 7  25991682.516
                  25991688.754          39.300                          42.100
 120182031.882 7                  89746351.113 8  22869877.633
                  22869882.992          45.900                          49.900
 20  8 16  0 45  4.0000000  0 21R01G17G08G03R18G06R17G28G11G19R02G30
                                G01G22R16R15E36E02E14E15E30
 124855495.974 5  97109976.484 5                  23356831.898    23356830.938
  23356837.313                          30.300          30.100
 116844917.244 6  91047893.70246                  22234815.344
  22234820.395                          39.800          40.900
 130361620.89014                  97347964.399 6  24806992.953
                  24807001.945          26.800                          36.300
 111016679.174 7  86506606.89547  82902167.100 8  21125783.961
  21125791.516    21125792.500          43.100          46.800          51.400
 110274276.138 6  85768801.972 7                  20658060.984    20658060.293
  20658065.234                          41.700          43.100
 126849526.377 5  98843790.86244  94725298.646 7  24138652.297
  24138661.547    24138662.320          32.300          28.100          42.600
 109343645.052 7  85044948.503 7                  20433444.797    20433443.973
  20433448.406                          42.700          43.900
 108687624.691 7  84691665.34545                  20682560.633
  20682565.184                          43.400          35.900
 120479049.523 5  93879780.54743                  22926400.414
  22926405.082                          35.400          19.600
 123478726.491 5  96217267.95743                  23497236.102
  23497240.305                          33.500          20.600
 115666468.643 6  89962835.575 6                  21675842.445    21675841.168
  21675847.570                          38.600          39.700
 126695452.380 5  98723767.25644  94610274.923 7  24109349.078
  24109357.980    24109358.320          31.800          28.000          43.100
 112670194.999 7  87795030.07545  84136896.075 8  21440435.641
  21440443.895    21440442.699          42.100          32.600          49.600
 114295585.286 7  89061499.81645                  21749718.508
  21749721.887                          42.300          33.300
 111965482.223 5  87084196.322 6                  20960154.648    20960153.602
  20960157.008                          35.600          37.500
 110050667.971 7  85594872.902 7                  20594455.023    20594455.613
  20594459.902                          43.300          43.700
 131640201.336 7                  98302765.810 7  25050298.117
                  25050304.078          42.000                          45.700
 130269356.287 7                  97279078.263 8  24789435.148
                  24789439.891          44.400                          48.100
 109281326.868 6                  81606204.916 7  20795543.148
                  20795547.602          41.400                          45.500
 136585475.192 6                 101995673.856 7  25991351.656
                  25991358.020          39.300                          42.300
 120181980.204 7                  89746312.526 8  22869868.000
                  22869873.195          46.000                          49.700
 20  8 16  0 45  5.0000000  0 21R01G17G08G03R18G06R17G28G11G19R02G30
                                G01G22R16R15E36E02E14E15E30
 124857443.523 4  97111491.286 4                  23357195.203    23357194.945
  23357201.684                          29.300          29.800
 116843050.294 6  91046438.93146                  22234460.344
  22234465.184                          39.600          40.100
 130364220.004 4                  97349905.323 6  24807487.516
                  24807496.969          26.800                          36.400
 111015617.203 7  86505779.38747  82901374.071 8  21125581.359
  21125589.445    21125590.367          42.800          46.800          50.900
 110273255.722 6  85768008.335 7                  20657870.266    20657869.234
  20657874.254                          41.300          43.300
 126846630.210 5  98841534.11244  94723135.932 7  24138101.156
  24138110.488    24138111.164          32.500          28.000          42.600
 109344996.559 7  85045999.676 7                  20433696.844    20433696.355
  20433700.949                          42.600          44.200
 108686751.088 7  84690984.62045                  20682394.203
  20682399.023                          43.000          35.600
 120481817.077 5  93881937.06543                  22926926.727
  22926931.809                          35.500          19.600
 123476003.550 5  96215146.18443                  23496717.438
  23496722.145                          33.800          19.600
 115664342.998 6  89961182.297 6                  21675443.469    21675443.340
  21675449.133                          38.400          39.800
 126698273.070 5  98725965.20144  94612381.225 7  24109886.789
  24109894.805    24109895.145          31.900          28.700          43.200
 112672738.565 6  87797012.06745  84138795.499 8  21440919.578
  21440928.121    21440926.832          41.800          32.400          50.000
 114296448.255 7  89062172.26445                  21749882.977
  21749885.941                          42.400          33.500
 111964407.209 5  87083360.247 6                  20959953.547    20959952.543
  20959955.738                          35.600          37.000
 110053602.257 7  85597155.126 7                  20595005.047    20595004.313
  20595009.090                          43.200          43.900
 131641990.384 7                  98304101.788 7  25050638.406
                  25050644.605          42.200                          45.700
 130271846.228 7                  97280937.651 7  24789909.211
                  24789913.656          44.600                          47.900
 109275755.360 6                  81602044.374 7  20794483.023
                  20794487.156          41.500                          45.600
 136583736.110 6                 101994375.179 7  25991020.586
                  25991026.898          38.800                          42.100
 120181929.023 7                  89746274.296 8  22869858.063
                  22869863.297          45.700                          50.100
 20  8 16  0 45  6.0000000  0 21R01G17G08G03R18G06R17G28G11G19R02G30
                                G01G22R16R15E36E02E14E15E30
 124859391.716 4  97113006.559 4                  23357560.094    23357558.973
  23357566.180                          29.600          27.900
 116841183.365 6  91044984.18546                  22234104.797
  22234109.895                          39.600          40.300
 130366819.18914                  97351846.316 6  24807982.969
                  24807991.453          26.800                          36.100
 111014555.906 7  86504952.41047  82900581.538 8  21125379.781
  21125387.473    21125388.402          43.200          46.700          50.800
 110272235.598 6  85767214.888 7                  20657678.305    20657677.766
  20657683.082                          41.600          43.400
 126843734.256 5  98839277.51844  94720973.368 7  24137550.023
  24137559.383    24137560.184          33.300          28.700          42.600
 109346348.223 7  85047050.964 7                  20433950.758    20433949.168
  20433953.656                          42.600          43.600
 108685877.962 7  84690304.25745                  20682228.328
  20682232.707                          43.300          35.700
 120484584.645 6  93884093.59643                  22927453.117
  22927458.496                          36.100          19.600
 123473280.596 5  96213024.38643                  23496199.883
  23496203.883                          33.900          19.300
 115662218.020 6  89959529.559 6                  21675045.313    21675044.566
  21675050.848                          38.300          39.800
 126701093.688 5  98728163.07944  94614487.548 7  24110422.734
  24110431.691    24110432.043          31.900          28.500          43.400
 112675282.373 6  87798994.25845  84140695.085 8  21441403.609
  21441412.223    21441410.859          41.700          32.400          50.000
 114297311.799 7  89062845.15645                  21750047.695
  21750050.227                          42.300          33.400
 111963333.090 5  87082524.793 6                  20959752.445    20959751.055
  20959754.758                          35.400          37.200
 110056537.163 7  85599437.846 7                  20595555.047    20595553.918
  20595558.359                          43.300          43.400
 131643779.431 6                  98305437.752 7  25050978.570
                  25050985.238          41.900                          45.900
 130274336.462 7                  97282797.245 7  24790383.000
                  24790387.527          44.600                          47.900
 109270184.250 6                  81597884.150 7  20793422.773
                  20793427.277          41.300                          45.600
 136581997.121 6                 101993076.601 7  25990689.469
                  25990695.855          38.700                          42.400
 120181878.290 7                  89746236.410 8  22869848.313
                  22869853.613          45.900                          50.000
 20  8 16  0 45  7.0000000  0 21R01G17G08G03R18G06R17G28G11G19R02G30
                                G01G22R16R15E36E02E14E15E30
 124861340.77314  97114522.442 4                  23357926.430    23357923.336
  23357930.734                          29.700          29.600
 116839316.510 6  91043529.49546                  22233749.906
  22233754.672                          39.900          40.200
 130369418.573 4                  97353787.411 5  24808477.766
                  24808485.547          26.400                          35.900
 111013495.267 7  86504125.93447  82899789.503 8  21125177.484
  21125185.516    21125186.547          43.600          46.600          50.800
 110271215.673 6  85766421.600 7                  20657487.820    20657486.996
  20657491.969                          41.000          43.500
 126840838.538 5  98837021.10344  94718810.983 7  24136999.391
  24137008.449    24137009.121          33.100          28.900          42.500
 109347700.020 7  85048102.356 7                  20434203.258    20434201.480
  20434206.250                          42.700          43.100
 108685005.356 7  84689624.30545                  20682061.914
  20682066.660                          43.200          35.100
 120487352.425 5  93886250.30243                  22927980.297
  22927985.141                          35.700          19.300
 123470557.748 5  96210902.68343                  23495682.219
  23495685.586                          33.800          19.600
 115660093.704 6  89957877.283 6                  21674647.141    21674646.984
  21674652.621                          38.900          39.800
 126703914.430 5  98730361.04744  94616593.959 7  24110958.750
  24110968.434    24110969.082          32.300          27.700          43.900
 112677826.402 7  87800976.60845  84142594.849 8  21441887.531
  21441896.426    21441894.977          42.100          31.600          50.000
 114298175.965 7  89063518.53345                  21750212.031
  21750214.750                          42.400          33.000
 111962259.840 5  87081690.033 6                  20959552.227    20959550.297
  20959553.711                          35.400          36.800
 110059472.751 7  85601721.081 7                  20596103.680    20596103.254
  20596107.668                          43.300          43.100
 131645568.543 7                  98306773.767 7  25051319.211
                  25051325.582          42.200                          45.800
 130276826.991 7                  97284657.043 8  24790856.719
                  24790861.430          44.400                          48.000
 109264613.606 6                  81593724.245 7  20792362.797
                  20792367.113          40.900                          45.300
 136580258.309 6                 101991778.139 7  25990358.719
                  25990365.055          37.900                          42.100
 120181828.049 7                  89746198.902 8  22869838.891
                  22869844.098          46.000                          49.800
 20  8 16  0 45  8.0000000  0 21R01G17G08G03R18G06R17G28G11G19R02G30
                                G01G22R16R15E36E02E14E15E30
 124863290.443 4  97116038.885 4                  23358292.602    23358287.371
  23358295.473                          29.400          29.000
 116837449.735 6  91042074.86546                  22233394.195
  22233399.480                          39.900          40.600
 130372018.09014                  97355728.517 5  24808971.508
                  24808980.109          26.800                          35.800
 111012435.214 7  86503299.92247  82898997.919 8  21124976.523
  21124983.816    21124984.863          43.400          46.700          51.000
 110270195.945 6  85765628.491 7                  20657297.531    20657295.516
  20657300.938                          41.000          43.100
 126837943.020 5  98834764.85044  94716648.738 7  24136448.164
  24136457.340    24136457.977          32.900          28.900          42.400
 109349051.953 7  85049153.862 7                  20434455.414    20434454.398
  20434458.793                          42.800          43.100
 108684133.289 7  84688944.77945                  20681896.242
  20681900.852                          42.600          35.400
 120490120.257 5  93888407.05243                  22928506.570
  22928511.703                          35.700          18.600
 123467834.888 5  96208780.97143                  23495164.117
  23495167.602                          34.300          19.900
 115657969.943 6  89956225.514 6                  21674249.695    21674248.617
  21674254.691                          38.700          39.800
 126706735.249 5  98732559.07944  94618700.385 7  24111496.359
  24111505.160    24111505.984          32.600          27.500          43.400
 112680370.671 7  87802959.15945  84144494.801 8  21442371.711
  21442380.703    21442379.156          42.300          31.700          50.100
 114299040.723 7  89064192.36645                  21750376.703
  21750379.238                          42.600          32.800
 111961187.442 5  87080855.946 6                  20959349.305    20959349.305
  20959353.078                          35.700          36.900
 110062408.968 7  85604004.808 7                  20596652.703    20596652.590
  20596657.051                          42.700          43.400
 131647357.657 7                  98308109.798 7  25051659.711
                  25051666.020          42.300                          45.700
 130279317.788 7                  97286517.059 7  24791330.844
                  24791335.332          44.200                          47.800
 109259043.361 6                  81589564.649 7  20791303.000
                  20791307.203          41.300                          45.600
 136578519.622 6                 101990479.780 7  25990027.773
                  25990034.211          38.000                          42.400
 120181778.292 7                  89746161.733 8  22869829.289
                  22869834.559          46.000                          50.200
 20  8 16  0 45  9.0000000  0 21R01G17G08G03R18G06R17G28G11G19R02G30
                                G01G22R16R15E36E02E14E15E30
 124865240.875 4  97117555.856 4                  23358656.906    23358652.227
  23358660.297                          29.000          28.300
 116835583.007 6  91040620.27146                  22233038.695
  22233044.199                          39.800          40.800
 130374617.518 4                  97357669.732 5  24809466.203
                  24809474.777          28.300                          35.600
 111011375.853 7  86502474.44347  82898206.823 8  21124774.289
  21124782.164    21124783.242          43.800          46.700          50.800
 110269176.424 6  85764835.537 7                  20657106.063    20657104.664
  20657110.000                          41.100          43.200
 126835047.704 5  98832508.77344  94714486.658 7  24135896.453
  24135906.504    24135906.984          32.200          28.300          42.300
 109350404.034 7  85050205.478 7                  20434707.344    20434706.832
  20434711.461                          42.600          43.400
 108683261.676 7  84688265.59346                  20681730.320
  20681735.016                          42.600          36.300
 120492888.227 5  93890563.93943                  22929033.359
  22929038.488                          35.500          18.300
 123465112.041 5  96206659.28943                  23494645.844
  23494649.336                          34.500          19.300
 115655846.861 6  89954574.186 6                  21673852.180    21673850.684
  21673856.879                          38.400          39.600
 126709556.086 5  98734757.12944  94620806.848 7  24112033.508
  24112041.863    24112042.746          32.800          28.200          43.800
 112682915.157 6  87804941.87345  84146394.907 8  21442855.680
  21442864.641    21442863.367          41.800          32.100          50.200
 114299906.070 7  89064866.65945                  21750541.078
  21750543.840                          42.000          33.400
 111960115.879 5  87080022.513 6                  20959149.234    20959148.887
  20959152.438                          35.500          37.000
 110065345.781 7  85606289.003 7                  20597202.820    20597202.516
  20597206.742                          42.500          43.500
 131649146.765 7                  98309445.814 7  25052000.508
                  25052006.574          42.400                          45.700
 130281808.856 7                  97288377.279 7  24791805.016
                  24791809.441          43.700                          47.700
 109253473.547 6                  81585405.364 7  20790243.156
                  20790247.281          41.600                          45.700
 136576781.051 6                 101989181.485 7  25989697.141
                  25989703.445          38.100                          42.300
 120181728.967 7                  89746124.898 8  22869819.906
                  22869825.125          46.100                          50.200
 20  8 16  0 45 10.0000000  0 21R01G17G08G03R18G06R17G28G11G19R02G30
                                G01G22R16R15E36E02E14E15E30
 124867192.037 4  97119073.473 4                  23359021.336    23359017.723
  23359025.355                          29.400          28.900
 116833716.365 6  91039165.73946                  22232683.617
  22232688.910                          39.600          40.600
 130377217.135 4                  97359610.991 5  24809961.883
                  24809969.801          28.000                          35.400
 111010317.172 7  86501649.49947  82897416.241 8  21124573.125
  21124580.707    21124581.824          44.100          46.800          51.000
 110268157.168 6  85764042.774 7                  20656915.391    20656913.727
  20656919.008                          40.900          43.600
 126832152.65315  98830252.89854  94712324.758 7  24135346.758
  24135355.391    24135356.105          31.900          28.500          42.600
 109351756.334 7  85051257.271 7                  20434960.078    20434959.645
  20434964.109                          42.600          43.700
 108682390.623 7  84687586.85346                  20681564.344
  20681569.090                          42.300          36.000
 120495656.289 5  93892720.83243                  22929559.297
  22929565.402                          35.700          18.600
 123462389.292 5  96204537.66543                  23494127.672
  23494131.125                          33.700          19.900
 115653724.438 6  89952923.419 6                  21673454.047    21673452.723
  21673459.000                          38.500          39.800
 126712377.014 5  98736955.26544  94622913.401 7  24112569.703
  24112578.496    24112579.387          32.000          28.600          43.700
 112685459.925 6  87806924.80545  84148295.221 8  21443339.711
  21443348.938    21443347.668          41.800          32.100          49.900
 114300772.081 7  89065541.46545                  21750705.695
  21750708.727                          42.000          34.000
 111959045.175 5  87079189.777 6                  20958948.602    20958948.152
  20958951.996                          35.400          37.100
 110068283.260 7  85608573.696 7                  20597751.906    20597751.836
  20597756.664                          43.000          43.600
 131650935.965 7                  98310781.908 7  25052340.586
                  25052346.902          42.500                          46.200
 130284300.224 7                  97290237.717 7  24792279.234
                  24792283.441          44.200                          47.300
 109247904.174 6                  81581246.432 7  20789183.109
                  20789187.395          41.600                          45.700
 136575042.661 6                 101987883.350 7  25989366.313
                  25989372.535          37.900                          42.300
 120181680.162 7                  89746088.466 8  22869810.898
                  22869815.938          46.300                          50.300
 20  8 16  0 45 11.0000000  0 21R01G17G08G03R18G06R17G28G11G19R02G30
                                G01G22R16R15E36E02E14E15E30
 124869143.972 4  97120591.587 4                  23359386.195    23359383.301
  23359390.375                          29.900          27.300
 116831849.811 6  91037711.28746                  22232328.414
  22232333.578                          39.600          40.500
 130379816.892 4                  97361552.346 5  24810457.414
                  24810464.859          28.000                          35.800
 111009259.085 7  86500825.01647  82896626.132 8  21124371.578
  21124379.258    21124380.363          44.300          46.800          51.000
 110267138.161 6  85763250.232 7                  20656724.805    20656722.742
  20656728.012                          40.900          43.700
 126829257.730 5  98827997.10544  94710162.995 7  24134795.734
  24134804.648    24134805.121          33.000          28.500          42.600
 109353108.803 7  85052309.203 7                  20435212.578    20435212.250
  20435216.820                          42.900          43.700
 108681520.076 7  84686908.50645                  20681398.789
  20681403.387                          42.600          35.900
 120498424.464 5  93894877.87943                  22930086.961
  22930092.203                          35.800          19.300
 123459666.579 5  96202416.08643                  23493609.047
  23493612.945                          32.800          19.300
 115651602.620 6  89951273.129 6                  21673057.547    21673055.145
  21673061.516                          38.400          39.400
 126715197.975 5  98739153.41044  94625019.986 7  24113106.195
  24113115.367    24113116.105          31.800          27.400          43.900
 112688004.935 6  87808907.94045  84150195.704 8  21443824.789
  21443833.191    21443831.996          41.800          33.200          50.200
 114301638.658 7  89066216.72945                  21750870.219
  21750873.688                          42.000          33.600
 111957975.408 5  87078357.732 6                  20958748.953    20958748.027
  20958751.871                          34.900          37.400
 110071221.368 7  85610858.893 7                  20598301.203    20598302.156
  20598306.336                          42.900          43.200
 131652725.166 7                  98312118.006 7  25052681.016
                  25052687.305          42.300                          46.200
 130286791.907 7                  97292098.373 7  24792753.500
                  24792757.590          44.500                          47.100
 109242335.253 6                  81577087.808 7  20788123.313
                  20788127.746          41.400                          46.100
 136573304.419 6                 101986585.299 7  25989035.711
                  25989041.574          38.200                          42.400
 120181631.833 7                  89746052.371 8  22869801.469
                  22869806.641          46.300                          50.100
 20  8 16  0 45 12.0000000  0 21R01G17G08G03R18G06R17G28G11G19R02G30
                                G01G22R16R15E36E02E14E15E30
 124871096.61714  97122110.283 4                  23359749.727    23359748.523
  23359755.711                          29.500          29.400
 116829983.301 6  91036256.86046                  22231972.898
  22231978.648                          39.200          40.500
 130382416.78614                  97363493.791 6  24810951.313
                  24810959.762          26.400                          36.100
 111008201.701 7  86500001.07947  82895836.532 8  21124170.602
  21124178.168    21124179.238          44.000          46.700          51.000
 110266119.412 6  85762457.844 7                  20656532.820    20656531.832
  20656537.164                          41.100          43.800
 126826363.140 5  98825741.59444  94708001.413 7  24134245.359
  24134253.965    24134254.246          32.600          28.900          42.700
 109354461.425 7  85053361.228 7                  20435465.805    20435464.875
  20435469.484                          42.600          43.400
 108680650.053 7  84686230.57045                  20681233.563
  20681237.789                          42.700          35.800
 120501192.751 5  93897034.95443                  22930614.250
  22930618.984                          35.600          18.600
 123456943.935 5  96200294.54943                  23493091.039
  23493094.910                          34.300          20.600
 115649481.477 6  89949623.354 6                  21672658.875    21672657.344
  21672664.027                          38.300          39.700
 126718019.087 5  98741351.67544  94627126.630 7  24113644.266
  24113652.273    24113652.781          32.000          27.800          43.800
 112690550.188 7  87810891.24845  84152096.384 8  21444308.766
  21444317.547    21444316.301          42.000          32.600          50.000
 114302505.870 7  89066892.48245                  21751035.539
  21751038.574                          42.000          33.000
 111956906.470 5  87077526.295 6                  20958549.055    20958548.090
  20958551.777                          35.100          37.000
 110074160.174 7  85613144.608 7                  20598852.398    20598851.891
  20598856.398                          42.800          43.300
 131654514.425 7                  98313454.128 7  25053021.711
                  25053027.820          42.100                          46.100
 130289283.867 7                  97293959.252 7  24793227.328
                  24793231.898          44.200                          47.300
 109236766.737 6                  81572929.512 7  20787063.781
                  20787068.137          41.700                          45.700
 136571566.346 6                 101985287.374 7  25988704.984
                  25988711.082          38.700                          42.300
 120181583.986 7                  89746016.651 8  22869792.531
                  22869797.598          46.200                          50.300
 20  8 16  0 45 13.0000000  0 21R01G17G08G03R18G06R17G28G11G19R02G30
                                G01G22R16R15E36E02E14E15E30
 124873049.874 5  97123629.521 4                  23360116.313    23360114.258
  23360121.258                          30.100          29.400
 116828116.842 6  91034802.47746                  22231617.750
  22231623.324                          39.500          40.500
 130385016.662 4                  97365435.275 6  24811446.492
                  24811454.508          25.900                          36.400
 111007144.953 7  86499177.63847  82895047.380 8  21123969.648
  21123977.051    21123978.043          43.700          46.700          51.000
 110265100.843 6  85761665.638 7                  20656341.828    20656341.086
  20656346.359                          40.600          43.700
 126823468.609 5  98823486.12144  94705839.944 7  24133694.555
  24133703.230    24133703.805          32.000          28.000          43.300
 109355814.100 7  85054413.302 7                  20435719.281    20435718.180
  20435722.258                          43.200          43.100
 108679780.525 7  84685553.00645                  20681067.375
  20681072.410                          42.400          35.900
 120503961.118 6  93899192.16443                  22931140.594
  22931145.848                          36.100          18.300
 123454221.222 5  96198172.93943                  23492573.195
  23492576.867                          34.200          20.100
 115647361.005 6  89947974.054 6                  21672260.758    21672259.980
  21672266.559                          38.700          39.600
 126720840.205 5  98743549.94144  94629233.302 7  24114180.148
  24114189.195    24114189.848          31.200          28.100          43.700
 112693095.640 7  87812874.71645  84153997.203 8  21444793.641
  21444801.883    21444800.633          42.000          32.600          50.000
 114303373.663 7  89067568.67845                  21751200.789
  21751203.707                          42.000          33.500
 111955838.369 5  87076695.562 6                  20958348.867    20958348.246
  20958351.895                          35.400          36.900
 110077099.525 7  85615430.796 7                  20599402.336    20599402.148
  20599406.691                          42.600          43.100
 131656303.675 7                  98314790.253 7  25053362.305
                  25053368.223          42.000                          46.400
 130291776.072 7                  97295820.326 7  24793701.586
                  24793706.145          44.100                          47.300
 109231198.637 6                  81568771.505 7  20786004.063
                  20786008.363          41.200                          45.600
 136569828.366 6                 101983989.544 7  25988374.203
                  25988380.305          38.600                          42.200
 120181536.587 7                  89745981.248 8  22869783.508
                  22869788.641          45.900                          49.900
 20  8 16  0 45 14.0000000  0 21R01G17G08G03R18G06R17G28G11G19R02G30
                                G01G22R16R15E36E02E14E15E30
 124875003.995 4  97125149.427 4                  23360481.984    23360480.039
  23360486.836                          29.900          29.200
 116826250.553 6  91033348.23846                  22231263.078
  22231268.238                          39.500          41.000
 130387616.68914                  97367376.904 6  24811939.031
                  24811949.008          26.400                          36.200
 111006088.893 7  86498354.73347  82894258.775 8  21123768.516
  21123776.285    21123777.203          43.700          46.900          50.900
 110264082.575 6  85760873.655 7                  20656151.781    20656150.438
  20656155.566                          40.900          43.800
 126820574.444 5  98821230.91844  94703678.722 7  24133143.188
  24133152.594    24133153.012          32.400          28.100          43.000
 109357167.031 7  85055465.604 7                  20435971.664    20435970.684
  20435975.195                          43.000          43.100
 108678911.542 7  84684875.87946                  20680902.898
  20680907.117                          42.700          36.100
 120506729.704 6  93901349.50143                  22931667.164
  22931672.535                          36.100          19.000
 123451498.694 5  96196051.48343                  23492054.422
  23492058.676                          34.100          19.900
 115645241.216 6  89946325.387 6                  21671863.188    21671862.988
  21671869.219                          38.600          39.300
 126723661.437 5  98745748.29844  94631340.037 7  24114717.766
  24114726.012    24114726.695          31.900          27.400          43.600
 112695641.407 7  87814858.43045  84155898.264 8  21445278.336
  21445286.395    21445285.102          42.100          33.200          50.000
 114304242.119 7  89068245.40245                  21751366.188
  21751368.906                          42.200          33.400
 111954771.172 5  87075865.549 6                  20958149.133    20958148.352
  20958152.215                          35.400          37.800
 110080039.601 7  85617717.511 7                  20599952.305    20599952.105
  20599956.875                          42.600          43.100
 131658093.038 7                  98316126.469 7  25053702.492
                  25053708.816          42.200                          46.000
 130294268.638 7                  97297681.658 7  24794175.773
                  24794180.355          44.500                          47.500
 109225631.050 6                  81564613.883 7  20784944.602
                  20784948.680          41.600                          45.600
 136568090.587 6                 101982691.890 7  25988043.867
                  25988049.488          38.700                          42.000
 120181489.739 7                  89745946.253 8  22869774.461
                  22869779.680          46.000                          50.100
 20  8 16  0 45 15.0000000  0 21R01G17G08G03R18G06R17G28G11G19R02G30
                                G01G22R16R15E36E02E14E15E30
 124876958.843 4  97126669.781 5                  23360847.406    23360845.508
  23360852.484                          29.300          30.100
 116824384.265 6  91031893.97346                  22230907.461
  22230913.066                          39.800          40.300
 130390216.790 4                  97369318.561 5  24812433.547
                  24812443.766          26.800                          35.900
 111005033.463 7  86497532.31847  82893470.618 8  21123567.813
  21123575.383    21123576.332          44.100          46.900          50.800
 110263064.499 6  85760081.813 7                  20655960.742    20655959.648
  20655964.922                          41.100          44.000
 126817680.472 5  98818975.86144  94701517.619 7  24132593.086
  24132601.891    24132602.281          31.900          28.800          42.700
 109358520.148 7  85056518.028 7                  20436225.070    20436223.512
  20436228.047                          42.900          43.400
 108678043.057 7  84684199.14746                  20680737.766
  20680741.891                          42.900          36.000
 120509498.314 5  93903506.85342                  22932194.352
  22932199.340                          35.700          17.800
 123448776.161 5  96193930.03543                  23491536.211
  23491540.570                          34.200          19.600
 115643122.084 6  89944677.167 6                  21671466.867    21671465.855
  21671471.992                          38.300          39.300
 126726482.716 5  98747946.69144  94633446.838 7  24115253.836
  24115262.867    24115263.664          32.200          27.100          43.800
 112698187.373 6  87816842.30045  84157799.470 8  21445762.063
  21445770.984    21445769.469          41.800          32.800          50.300
 114305111.165 7  89068922.57945                  21751531.867
  21751534.254                          42.300          33.300
 111953704.838 5  87075036.156 6                  20957949.063    20957948.430
  20957952.750                          34.700          37.700
 110082980.264 7  85620004.696 7                  20600502.852    20600502.930
  20600507.063                          42.600          43.400
 131659882.359 7                  98317462.664 7  25054043.180
                  25054049.453          42.000                          45.900
 130296761.475 7                  97299543.173 7  24794650.313
                  24794654.742          44.300                          47.300
 109220063.849 6                  81560456.560 7  20783885.094
                  20783889.410          41.400                          45.600
 136566352.917 6                 101981394.264 7  25987713.055
                  25987718.863          38.400                          42.600
 120181443.313 7                  89745911.590 8  22869765.727
                  22869770.750          46.100                          49.800
 20  8 16  0 45 16.0000000  0 21R01G17G08G03R18G06R17G28G11G19R02G30
                                G01G22R16R15E36E02E14E15E30
 124878914.394 4  97128190.753 4                  23361212.023    23361211.230
  23361218.484                          29.500          29.100
 116822518.011 6  91030439.75346                  22230552.969
  22230557.867                          40.400          40.900
 130392817.05114                  97371260.322 5  24812929.938
                  24812938.395          26.400                          35.800
 111003978.652 7  86496710.38747  82892682.956 8  21123367.547
  21123374.715    21123375.508          43.900          46.900          50.700
 110262046.615 6  85759290.131 7                  20655769.969    20655768.828
  20655774.273                          41.400          44.100
 126814786.581 5  98816720.90544  94699356.660 7  24132041.492
  24132051.230    24132051.621          31.900          28.900          42.700
 109359873.424 7  85057570.559 7                  20436477.344    20436476.305
  20436480.879                          42.900          43.200
 108677175.069 7  84683522.78545                  20680571.883
  20680576.719                          43.000          35.700
 120512267.071 6  93905664.33842                  22932721.563
  22932726.211                          36.000          17.800
 123446053.616 5  96191808.54443                  23491018.656
  23491022.445                          33.900          19.000
 115641003.588 6  89943029.427 6                  21671070.523    21671069.176
  21671075.090                          38.900          39.400
 126729304.068 5  98750145.15244  94635553.661 7  24115790.672
  24115799.777    24115800.602          32.600          27.300          43.900
 112700733.547 6  87818826.33745  84159700.835 8  21446246.711
  21446255.430    21446254.176          41.900          31.900          50.000
 114305980.777 7  89069600.19645                  21751697.492
  21751699.781                          42.100          33.200
 111952639.342 5  87074207.436 6                  20957749.195    20957749.012
  20957753.176                          35.100          37.600
 110085921.529 7  85622292.362 7                  20601052.945    20601052.992
  20601057.605                          42.700          43.200
 131661671.723 7                  98318798.857 7  25054383.977
                  25054389.938          42.300                          45.500
 130299254.548 7                  97301404.913 7  24795124.688
                  24795129.043          44.100                          47.300
 109214497.050 6                  81556299.560 7  20782825.680
                  20782830.109          41.500                          45.800
 136564615.413 6                 101980096.760 7  25987381.891
                  25987388.285          38.400                          42.400
 120181397.361 7                  89745877.276 8  22869757.016
                  22869761.949          45.700                          49.300
 20  8 16  0 45 17.0000000  0 21R01G17G08G03R18G06R17G28G11G19R02G30
                                G01G22R16R15E36E02E14E15E30
 124880870.557 4  97129712.304 4                  23361576.664    23361576.949
  23361584.418                          29.500          29.800
 116820651.881 6  91028985.63346                  22230197.438
  22230202.801                          40.200          40.200
 130395417.378 4                  97373202.122 6  24813424.922
                  24813433.129          27.300                          36.100
 111002924.516 7  86495888.98647  82891895.775 8  21123166.773
  21123174.051    21123175.055          43.300          46.700          50.900
 110261029.004 6  85758498.647 7                  20655579.180    20655578.035
  20655583.691                          41.300          43.800
 126811893.068 5  98814466.22544  94697195.871 7  24131490.195
  24131500.672    24131501.023          31.800          28.700          42.900
 109361226.784 7  85058623.191 7                  20436729.359    20436729.598
  20436733.879                          43.000          43.300
 108676307.617 7  84682846.84945                  20680406.898
  20680411.586                          43.200          35.400
 120515035.944 5  93907821.87243                  22933248.258
  22933252.902                          35.500          18.600
 123443331.088 5  96189687.11743                  23490500.289
  23490504.383                          33.700          19.600
 115638885.765 6  89941382.249 6                  21670673.648    21670672.086
  21670678.238                          39.200          39.100
 126732125.420 5  98752343.60344  94637660.531 7  24116328.102
  24116336.758    24116337.660          32.400          28.300          43.900
 112703279.987 6  87820810.56645  84161602.390 8  21446731.734
  21446739.926    21446738.551          41.600          32.400          50.000
 114306851.049 7  89070278.32845                  21751863.141
  21751865.520                          42.000          32.800
 111951574.689 5  87073379.392 6                  20957550.680    20957549.867
  20957553.836                          35.300          37.200
 110088863.501 7  85624580.531 7                  20601604.031    20601603.527
  20601608.074                          42.700          43.300
 131663461.128 6                  98320135.112 7  25054724.477
                  25054730.359          41.600                          45.500
 130301747.943 7                  97303266.846 7  24795599.172
                  24795603.621          43.800                          47.600
 109208930.717 6                  81552142.864 7  20781766.398
                  20781771.016          41.600                          45.300
 136562878.042 6                 101978799.368 7  25987051.172
                  25987057.824          38.000                          42.500
 120181351.888 7                  89745843.317 8  22869748.383
                  22869753.492          45.600                          49.400
 20  8 16  0 45 18.0000000  0 21R01G17G08G03R18G06R17G28G11G19R02G30
                                G01G22R16R15E36E02E14E15E30
 124882827.534 5  97131234.417 4                  23361943.313    23361943.336
  23361950.496                          30.100          29.600
 116818785.795 6  91027531.54046                  22229842.609
  22229847.578                          40.600          40.400
 130398017.92514                  97375143.995 6  24813920.164
                  24813927.871          25.900                          36.300
 111001871.057 7  86495068.09947  82891109.094 8  21122965.680
  21122973.598    21122974.547          43.700          46.700          51.000
 110260011.616 6  85757707.357 7                  20655389.117    20655387.879
  20655393.055                          41.600          43.400
 126808999.678 5  98812211.63144  94695035.258 7  24130940.258
  24130950.000    24130950.672          31.800          28.200          43.200
 109362580.290 7  85059675.919 7                  20436983.961    20436982.199
  20436986.797                          42.900          42.800
 108675440.661 7  84682171.29645                  20680241.953
  20680246.520                          43.200          35.600
 120517804.866 5  93909979.45843                  22933774.672
  22933779.813                          35.500          18.600
 123440608.655 5  96187565.75143                  23489982.398
  23489986.484                          33.900          20.600
 115636768.613 6  89939735.577 6                  21670277.445    21670275.465
  21670281.266                          38.400          39.300
 126734946.859 5  98754542.12744  94639767.480 7  24116864.484
  24116873.762    24116874.402          32.500          27.600          44.100
 112705826.656 6  87822794.99645  84163504.137 8  21447216.180
  21447224.523    21447223.152          41.800          32.100          49.700
 114307721.896 6  89070956.92245                  21752028.500
  21752031.152                          41.800          33.000
 111950510.920 5  87072552.009 6                  20957351.633    20957350.758
  20957354.609                          35.400          37.300
 110091806.074 7  85626869.206 7                  20602153.984    20602154.023
  20602158.758                          43.000          43.000
 131665250.560 6                  98321471.365 7  25055064.648
                  25055070.977          41.600                          45.700
 130304241.601 7                  97305128.995 7  24796073.820
                  24796078.266          43.900                          47.700
 109203364.801 6                  81547986.501 7  20780707.273
                  20780711.793          41.800                          45.400
 136561140.771 6                 101977502.087 7  25986720.695
                  25986727.250          37.700                          42.800
 120181306.905 7                  89745809.724 8  22869739.820
                  22869744.723          45.300                          49.400
 20  8 16  0 45 19.0000000  0 21R01G17G08G03R18G06R17G28G11G19R02G30
                                G01G22R16R15E36E02E14E15E30
 124884785.318 5  97132757.045 4                  23362309.625    23362309.973
  23362316.668                          30.400          28.800
 116816919.816 6  91026077.52746                  22229487.234
  22229492.484                          40.800          40.400
 130400618.457 4                  97377086.028 6  24814415.250
                  24814422.781          26.800                          36.400
 111000818.254 7  86494247.73947  82890322.906 8  21122765.750
