     2.11           OBSERVATION DATA    M (MIXED)           RINEX VERSION / TYPE
teqc  2016Nov7      KASI/KOREA          20200816 00:33:04UTCPGM / RUN BY / DATE
Linux 2.4.20-8|Pentium IV|gcc|Linux|486/DX+                 COMMENT
  0.0000      (antenna height)                              COMMENT
 +36.39942714 (latitude)                                    COMMENT
+127.37448264 (longitude)                                   COMMENT
0116.859      (elevation)                                   COMMENT
BIT 2 OF LLI FLAGS DATA COLLECTED UNDER A/S CONDITION       COMMENT
23902M002 (COGO code)                                       COMMENT
DAEJ                                                        MARKER NAME
23902M002                                                   MARKER NUMBER
KASI GPS            KASI/KOREA                              OBSERVER / AGENCY
5412K48145          TRIMBLE NETR9       5.44                REC # / TYPE / VERS
4923363230          TRM59800.00     SCIS                    ANT # / TYPE
 -3120042.7060  4084613.8706  3764027.2559                  APPROX POSITION XYZ
        0.0000        0.0000        0.0000                  ANTENNA: DELTA H/E/N
     1     1                                                WAVELENGTH FACT L1/2
    10    L1    L2    L5    C1    P1    P2    C5    S1    S2# / TYPES OF OBSERV
          S5                                                # / TYPES OF OBSERV
    18                                                      LEAP SECONDS
 SNR is mapped to RINEX snr flag value [0-9]                COMMENT
  L1 & L2: min(max(int(snr_dBHz/6), 0), 9)                  COMMENT
  2020     8    16     0    15    0.0000000     GPS         TIME OF FIRST OBS
                                                            END OF HEADER
 20  8 16  0 15  0.0000000  0 22R01G17G07G08G03R18R24R17G28G11G19R02
                                G30G01R14G22R16R15E36E02E14E30
 122589224.950 5  95347321.782 5                  22932877.227    22932877.324
  22932884.137                          30.200          30.800
 120312917.236 6  93750230.21245                  22894755.055
  22894760.203                          38.300          35.900
 127295105.927 5  99191048.07344                  24223468.180
  24223473.906                          32.000          24.400
 125837531.724 5  98055232.53243  93969589.308 7  23946085.445
  23946094.734    23946094.281          32.300          20.900          45.100
 113934649.477 7  88780349.38747  85081170.113 8  21681055.992
  21681063.703    21681064.297          42.200          44.100          50.400
 112522038.857 6  87517060.905 6                  21079143.813    21079142.859
  21079147.961                          39.400          41.900
 122333444.129 5  95148249.679 5                  22876974.984    22876975.398
  22876979.531                          35.000          34.500
 107196560.305 7  83374993.862 7                  20032209.953    20032209.496
  20032214.543                          43.800          44.500
 111040396.223 7  86524993.89545                  21130277.813
  21130282.711                          43.000          35.700
 115700835.173 6  90156498.17544                  22017134.664
  22017138.969                          39.300          25.600
 128437810.609 4 100081487.86142                  24440917.750
  24440924.418                          28.600          16.900
 120419964.783 5  93659997.034 6                  22566647.148    22566645.727
  22566652.473                          35.700          36.500
 121828189.793 6  94931096.87545  90975632.820 7  23183140.031
  23183147.770    23183146.895          37.900          35.100          44.600
 108556297.417 7  84589395.85246  81064830.029 8  20657586.375
  20657595.234    20657593.621          42.600          36.500          51.900
 119335117.692 6  92816224.496 6                  22386970.578    22386968.727
  22386974.375                          37.000          38.600
 113753717.086 7  88639264.49245                  21646604.500
  21646608.152                          43.600          34.000
 115237126.515 5  89628808.468 5                  21572611.703    21572611.414
  21572616.621                          32.800          35.800
 105927591.235 7  82388035.943 7                  19822877.563    19822877.699
  19822882.242                          45.700          45.400
 128491553.417 7                  95951503.109 7  24451130.000
                  24451135.797          44.700                          47.400
 126298164.634 7                  94313578.711 8  24033741.984
                  24033746.641          45.700                          49.900
 119840717.397 6                  89491462.291 6  22804929.391
                  22804933.152          36.100                          41.100
 121035273.941 7                  90383512.752 8  23032243.969
                  23032248.949          44.900                          49.000
 20  8 16  0 15  1.0000000  0 22R01G17G07G08G03R18R24R17G28G11G19R02
                                G30G01R14G22R16R15E36E02E14E30
 122589765.143 5  95347741.854 5                  22932977.852    22932977.637
  22932985.246                          30.600          30.200
 120310945.385 6  93748693.70346                  22894379.469
  22894385.043                          38.300          36.100
 127298289.540 5  99193528.81243                  24224073.391
  24224079.777                          31.000          23.500
 125839948.609 5  98057115.81843  93971394.093 7  23946544.883
  23946554.688    23946554.359          32.800          20.100          45.500
 113932517.648 7  88778688.22147  85079578.178 8  21680649.609
  21680657.828    21680658.715          42.000          44.200          50.200
 112520551.619 6  87515904.161 7                  21078865.172    21078864.355
  21078869.539                          39.500          42.300
 122336266.277 5  95150444.697 5                  22877502.844    22877502.859
  22877507.223                          34.800          35.000
 107197567.111 7  83375776.943 7                  20032399.547    20032397.539
  20032402.766                          43.600          44.500
 111038698.788 7  86523671.22445                  21129955.359
  21129959.656                          43.100          34.800
 115703345.469 6  90158454.24344                  22017611.875
  22017616.703                          39.400          24.600
 128435042.693 4 100079330.98342                  24440390.656
  24440397.566                          29.900          16.300
 120416905.212 5  93657617.323 6                  22566073.313    22566072.535
  22566078.867                          35.900          36.900
 121830703.469 6  94933055.57445  90977509.935 7  23183617.453
  23183625.934    23183625.273          37.600          34.600          44.200
 108558268.007 7  84590931.38146  81066301.571 8  20657961.672
  20657970.164    20657968.621          42.700          36.500          52.000
 119339448.869 6  92819593.189 6                  22387782.109    22387780.684
  22387787.008                          37.000          38.600
 113753450.214 7  88639056.53945                  21646554.391
  21646557.422                          43.600          34.600
 115234624.206 5  89626862.235 5                  21572142.656    21572143.172
  21572148.133                          32.800          35.900
 105929164.318 7  82389259.460 7                  19823171.555    19823172.086
  19823176.699                          45.300          45.600
 128493239.235 7                  95952762.006 7  24451450.859
                  24451456.543          44.300                          47.700
 126300051.115 7                  94314987.443 8  24034101.156
                  24034105.633          46.000                          49.800
 119834679.712 5                  89486953.634 6  22803780.430
                  22803784.238          35.600                          41.000
 121034393.531 7                  90382855.309 8  23032076.297
                  23032081.465          44.800                          49.300
 20  8 16  0 15  2.0000000  0 22R01G17G07G08G03R18R24R17G28G11G19R02
                                G30G01R14G22R16R15E36E02E14E30
 122590306.152 5  95348162.693 5                  22933081.094    22933079.000
  22933086.449                          30.400          30.000
 120308973.544 6  93747157.20246                  22894003.945
  22894009.801                          38.200          36.300
 127301473.138 5  99196009.55844                  24224678.938
  24224685.484                          31.000          24.000
 125842365.520 5  98058999.10143  93973198.961 7  23947005.703
  23947014.781    23947014.109          33.200          20.900          45.300
 113930386.422 7  88777027.53147  85077986.649 8  21680243.969
  21680252.426    21680253.172          42.000          44.200          50.300
 112519064.706 6  87514747.712 7                  21078586.563    21078585.777
  21078591.082                          39.800          42.300
 122339088.434 5  95152639.719 5                  22878031.594    22878030.684
  22878034.980                          35.100          34.300
 107198574.212 7  83376560.232 7                  20032587.188    20032585.949
  20032590.883                          43.400          44.600
 111037001.759 7  86522348.86445                  21129631.914
  21129636.813                          43.600          35.200
 115705856.005 6  90160410.51244                  22018090.688
  22018094.594                          39.100          24.700
 128432274.880 4 100077174.32742                  24439865.273
  24439870.645                          29.900          16.300
 120413845.992 6  93655237.947 6                  22565500.820    22565499.465
  22565505.586                          36.000          36.900
 121833217.509 6  94935014.56245  90979387.290 7  23184095.445
  23184104.281    23184103.555          37.500          34.500          44.400
 108560239.011 7  84592467.22146  81067773.432 8  20658336.531
  20658345.398    20658343.652          42.500          36.600          51.800
 119343780.277 6  92822962.050 6                  22388594.688    22388593.359
  22388599.559                          37.100          38.600
 113753183.999 7  88638849.09745                  21646503.586
  21646506.609                          43.500          34.800
 115232122.701 5  89624916.593 5                  21571675.938    21571674.633
  21571679.875                          32.800          35.900
 105930738.285 7  82390483.659 7                  19823466.781    19823466.520
  19823471.160                          44.900          46.100
 128494925.187 7                  95954020.981 7  24451771.688
                  24451777.430          44.300                          47.500
 126301938.010 7                  94316396.487 8  24034460.219
                  24034464.754          45.900                          49.600
 119828642.152 5                  89482445.059 6  22802631.297
                  22802635.266          35.600                          41.000
 121033513.583 7                  90382198.203 8  23031908.852
                  23031913.859          44.900                          48.900
 20  8 16  0 15  3.0000000  0 22R01G17G07G08G03R18R24R17G28G11G19R02
                                G30G01R14G22R16R15E36E02E14E30
 122590847.991 5  95348584.073 5                  22933180.102    22933180.445
  22933187.680                          30.300          30.700
 120307001.797 6  93745620.77546                  22893628.602
  22893634.605                          37.700          36.900
 127304656.686 5  99198490.21944                  24225283.953
  24225291.289                          32.000          25.700
 125844782.627 5  98060882.56043  93975003.885 7  23947465.969
  23947474.813    23947474.039          33.100          20.900          45.200
 113928255.654 6  88775367.19447  85076395.512 8  21679839.008
  21679846.852    21679847.641          41.700          44.500          50.300
 112517578.074 6  87513591.419 7                  21078308.680    21078307.000
  21078312.508                          39.900          42.300
 122341910.554 5  95154834.745 5                  22878559.383    22878558.348
  22878562.543                          35.100          34.700
 107199581.531 7  83377343.697 7                  20032775.867    20032774.109
  20032779.121                          43.100          44.800
 111035305.125 7  86521026.81545                  21129308.523
  21129314.078                          43.400          34.600
 115708366.717 6  90162366.91144                  22018568.023
  22018572.328                          38.900          24.100
 128429506.952 4 100075017.50942                  24439339.266
  24439344.168                          29.600          16.900
 120410787.164 5  93652858.854 6                  22564927.414    22564926.207
  22564932.352                          35.900          36.500
 121835731.800 6  94936973.75045  90981264.840 7  23184574.016
  23184582.938    23184582.004          36.900          34.200          44.500
 108562210.402 7  84594003.37246  81069245.581 8  20658711.898
  20658720.406    20658718.789          42.400          36.300          51.700
 119348111.891 6  92826331.090 6                  22389405.586    22389406.105
  22389412.242                          37.400          39.300
 113752918.417 7  88638642.14645                  21646453.305
  21646456.137                          43.800          34.400
 115229621.860 5  89622971.512 5                  21571207.625    21571206.520
  21571211.555                          32.400          35.600
 105932313.093 7  82391708.500 7                  19823761.234    19823761.465
  19823765.863                          44.700          45.700
 128496611.184 7                  95955280.024 7  24452092.352
                  24452098.344          44.300                          47.500
 126303825.258 7                  94317805.798 8  24034819.445
                  24034823.863          46.000                          50.100
 119822604.677 5                  89477936.582 6  22801482.656
                  22801486.555          35.600                          40.900
 121032634.076 7                  90381541.421 8  23031741.766
                  23031746.621          45.200                          49.000
 20  8 16  0 15  4.0000000  0 22R01G17G07G08G03R18R24R17G28G11G19R02
                                G30G01R14G22R16R15E36E02E14E30
 122591390.616 5  95349006.142 5                  22933281.023    22933282.105
  22933289.324                          30.100          30.800
 120305030.093 6  93744084.38346                  22893254.047
  22893259.422                          37.200          36.700
 127307840.332 5  99200970.97544                  24225890.227
  24225897.004                          31.300          25.000
 125847199.742 5  98062766.01743  93976808.917 7  23947925.008
  23947934.770    23947934.207          32.800          20.900          45.200
 113926125.424 6  88773707.27247  85074804.756 8  21679433.641
  21679441.492    21679442.305          41.800          44.300          50.300
 112516091.717 6  87512435.350 6                  21078029.773    21078028.629
  21078034.145                          39.900          41.900
 122344732.694 5  95157029.668 5                  22879086.227    22879086.055
  22879090.320                          34.900          34.700
 107200589.026 7  83378127.312 7                  20032962.813    20032962.445
  20032967.398                          43.100          44.700
 111033608.859 7  86519705.03645                  21128985.781
  21128991.234                          43.400          34.600
 115710877.602 6  90164323.44644                  22019045.445
  22019050.195                          39.000          24.700
 128426739.101 5 100072860.72342                  24438812.500
  24438817.449                          30.500          16.900
 120407728.702 5  93650480.044 6                  22564354.031    22564352.848
  22564359.301                          35.900          37.100
 121838246.310 6  94938933.10945  90983142.583 7  23185051.961
  23185061.504    23185060.551          37.100          34.200          44.700
 108564182.200 7  84595539.84546  81070718.022 8  20659087.445
  20659095.621    20659094.125          42.100          36.900          51.600
 119352443.735 6  92829700.278 6                  22390219.352    22390218.883
  22390225.008                          37.400          38.200
 113752653.439 7  88638435.67445                  21646402.977
  21646405.789                          43.400          34.300
 115227121.710 5  89621026.975 5                  21570739.031    21570738.711
  21570743.445                          32.800          35.300
 105933888.747 7  82392934.013 7                  19824056.961    19824056.273
  19824060.770                          44.700          45.600
 128498297.289 7                  95956539.122 7  24452413.367
                  24452419.133          43.900                          47.700
 126305712.891 7                  94319215.382 8  24035178.617
                  24035182.992          45.900                          49.900
 119816567.346 5                  89473428.161 6  22800333.375
                  22800337.629          35.600                          40.900
 121031754.974 7                  90380884.966 8  23031574.383
                  23031579.273          45.400                          49.000
 20  8 16  0 15  5.0000000  0 22R01G17G07G08G03R18R24R17G28G11G19R02
                                G30G01R14G22R16R15E36E02E14E30
 122591934.105 5  95349428.836 5                  22933384.117    22933383.637
  22933390.957                          30.000          31.000
 120303058.397 6  93742548.00446                  22892878.695
  22892884.195                          37.700          36.100
 127311023.825 5  99203451.60644                  24226496.313
  24226502.762                          30.700          24.700
 125849616.973 5  98064649.58043  93978613.987 7  23948384.289
  23948394.895    23948394.086          32.900          19.900          45.100
 113923995.717 6  88772047.75747  85073214.390 8  21679028.750
  21679036.223    21679037.031          41.700          44.500          50.200
 112514605.634 6  87511279.497 7                  21077750.984    21077750.199
  21077755.895                          39.600          42.200
 122347554.766 5  95159224.626 5                  22879613.992    22879613.902
  22879617.852                          35.200          34.700
 107201596.778 7  83378911.101 7                  20033152.203    20033150.770
  20033155.637                          43.200          45.200
 111031913.003 7  86518383.59445                  21128663.617
  21128668.375                          43.200          34.700
 115713388.636 6  90166280.08844                  22019523.094
  22019527.895                          38.900          24.700
 128423971.245 5 100070703.94442                  24438285.773
  24438290.742                          30.800          17.400
 120404670.628 5  93648101.551 6                  22563779.977    22563779.574
  22563786.383                          35.900          37.100
 121840761.170 6  94940892.73545  90985020.533 7  23185531.273
  23185539.883    23185539.039          36.900          34.700          44.600
 108566154.377 7  84597076.60246  81072190.741 8  20659462.000
  20659470.914    20659469.402          42.700          36.300          51.600
 119356775.762 6  92833069.631 6                  22391032.398    22391031.504
  22391037.676                          37.000          38.900
 113752389.083 7  88638229.68045                  21646352.398
  21646355.406                          43.400          34.800
 115224622.300 5  89619082.971 6                  21570272.203    21570270.707
  21570275.574                          32.800          36.000
 105935465.258 7  82394160.195 7                  19824351.133    19824351.371
  19824355.848                          44.900          45.900
 128499983.461 7                  95957798.284 7  24452734.422
                  24452740.195          43.900                          47.800
 126307600.866 7                  94320625.249 8  24035538.008
                  24035542.387          45.800                          50.100
 119810530.119 5                  89468919.816 6  22799184.867
                  22799188.793          35.600                          41.000
 121030876.317 7                  90380228.808 8  23031407.078
                  23031412.023          45.500                          49.100
 20  8 16  0 15  6.0000000  0 22R01G17G07G08G03R18R24R17G28G11G19R02
                                G30G01R14G22R16R15E36E02E14E30
 122592478.355 5  95349852.142 5                  22933487.016    22933485.820
  22933492.785                          30.000          31.200
 120301086.790 6  93741011.69346                  22892503.203
  22892509.023                          37.900          36.200
 127314207.457 5  99205932.36143                  24227102.352
  24227108.578                          30.800          23.400
 125852034.363 5  98066533.25743  93980419.161 7  23948845.461
  23948854.863    23948854.078          32.900          20.100          45.000
 113921866.538 7  88770388.66547  85071624.398 8  21678622.977
  21678630.953    21678631.883          42.100          44.300          50.200
 112513119.808 6  87510123.889 7                  21077472.281    21077472.020
  21077477.531                          39.700          42.300
 122350376.762 5  95161419.509 5                  22880142.375    22880141.402
  22880145.637                          34.600          34.500
 107202604.767 7  83379695.105 7                  20033339.813    20033338.930
  20033343.902                          43.500          45.100
 111030217.531 7  86517062.45545                  21128340.758
  21128345.855                          43.100          34.200
 115715899.846 6  90168236.87144                  22020001.656
  22020005.902                          38.800          24.000
 128421203.399 4 100068547.14142                  24437758.633
  24437764.063                          28.900          16.900
 120401612.982 6  93645723.352 6                  22563208.078    22563206.898
  22563213.465                          36.100          37.300
 121843276.238 6  94942852.52745  90986898.676 7  23186009.563
  23186018.469    23186017.703          37.000          34.800          44.900
 108568126.954 7  84598613.67846  81073663.778 8  20659837.641
  20659846.281    20659844.754          42.600          36.700          51.600
 119361107.994 6  92836439.164 6                  22391844.961    22391844.344
  22391850.422                          36.700          38.900
 113752125.372 7  88638024.19045                  21646302.367
  21646305.129                          43.600          34.500
 115222123.589 5  89617139.534 6                  21569804.984    21569802.754
  21569807.793                          32.900          36.300
 105937042.628 7  82395387.030 7                  19824646.258    19824646.340
  19824650.902                          44.600          45.600
 128501669.730 7                  95959057.502 7  24453055.430
                  24453060.828          44.100                          47.700
 126309489.247 7                  94322035.401 8  24035897.125
                  24035901.574          45.700                          49.900
 119804492.975 5                  89464411.577 6  22798035.992
                  22798039.957          35.200                          41.200
 121029998.107 7                  90379572.994 8  23031239.922
                  23031244.922          45.300                          49.200
 20  8 16  0 15  7.0000000  0 22R01G17G07G08G03R18R24R17G28G11G19R02
                                G30G01R14G22R16R15E36E02E14E30
 122593023.430 5  95350276.081 5                  22933589.117    22933587.520
  22933594.688                          30.500          30.800
 120299115.248 6  93739475.42946                  22892127.820
  22892133.969                          37.900          36.500
 127317390.941 5  99208412.99743                  24227708.016
  24227714.574                          30.800          23.400
 125854451.804 5  98068416.99943  93982224.400 7  23949304.758
  23949314.996    23949314.223          33.000          20.400          44.900
 113919737.817 7  88768729.92147  85070034.794 8  21678217.719
  21678225.879    21678226.707          42.200          44.500          50.000
 112511634.289 6  87508968.477 7                  21077194.031    21077193.504
  21077199.285                          39.900          42.300
 122353198.694 5  95163614.403 5                  22880668.766    22880668.988
  22880673.500                          34.700          34.400
 107203612.982 7  83380479.265 7                  20033529.461    20033527.320
  20033532.359                          43.500          45.100
 111028522.477 7  86515741.62445                  21128018.781
  21128023.324                          43.100          34.400
 115718411.268 6  90170193.83344                  22020478.859
  22020483.984                          39.000          25.300
 128418435.542 5 100066390.42442                  24437231.891
  24437237.418                          30.100          17.400
 120398555.693 6  93643345.469 6                  22562634.633    22562634.109
  22562640.594                          36.100          37.900
 121845791.621 6  94944812.56645  90988777.041 7  23186488.039
  23186497.051    23186496.277          36.900          34.400          45.000
 108570099.911 7  84600151.04746  81075137.095 8  20660213.336
  20660221.828    20660220.168          42.600          36.300          51.300
 119365440.474 6  92839808.852 6                  22392657.344    22392656.504
  22392663.219                          37.000          39.000
 113751862.268 7  88637819.17245                  21646251.961
  21646255.105                          43.900          34.500
 115219625.503 5  89615196.569 5                  21569337.266    21569335.359
  21569340.121                          33.300          35.900
 105938620.811 7  82396614.503 7                  19824942.641    19824941.625
  19824946.309                          45.200          45.500
 128503356.089 7                  95960316.793 7  24453375.859
                  24453381.813          44.000                          47.500
 126311377.982 7                  94323445.815 8  24036256.352
                  24036260.996          45.500                          49.600
 119798455.948 5                  89459903.419 6  22796887.188
                  22796891.148          35.300                          41.300
 121029120.289 7                  90378917.491 8  23031072.930
                  23031077.867          45.300                          49.000
 20  8 16  0 15  8.0000000  0 22R01G17G07G08G03R18R24R17G28G11G19R02
                                G30G01R14G22R16R15E36E02E14E30
 122593569.261 5  95350700.660 5                  22933690.234    22933689.973
  22933696.875                          31.000          31.200
 120297143.707 6  93737939.15746                  22891753.625
  22891758.848                          37.500          36.300
 127320574.475 5  99210893.68544                  24228313.867
  24228320.566                          31.000          25.200
 125856869.317 5  98070300.76443  93984029.695 7  23949765.305
  23949775.055    23949774.309          33.000          20.400          45.200
 113917609.669 6  88767071.62247  85068445.584 8  21677813.430
  21677820.930    21677821.832          41.800          44.200          50.000
 112510149.056 6  87507813.319 6                  21076915.953    21076915.426
  21076921.012                          39.800          41.500
 122356020.669 5  95165809.249 5                  22881196.352    22881196.781
  22881201.141                          34.700          34.400
 107204621.399 7  83381263.604 7                  20033717.445    20033716.199
  20033720.738                          43.700          45.100
 111026827.792 7  86514421.09045                  21127695.977
  21127700.797                          43.100          34.600
 115720922.847 6  90172150.91544                  22020957.031
  22020961.977                          39.200          25.600
 128415667.719 5 100064233.69242                  24436706.180
  24436710.758                          30.700          16.900
 120395498.784 5  93640967.857 6                  22562062.648    22562061.313
  22562067.883                          35.600          37.700
 121848307.236 6  94946772.78645  90990655.600 7  23186967.047
  23186975.750    23186975.051          36.600          34.600          45.200
 108572073.274 7  84601688.73646  81076610.700 8  20660588.906
  20660597.254    20660595.703          43.000          36.200          51.600
 119369773.107 6  92843178.708 6                  22393470.781    22393469.398
  22393475.918                          37.100          38.400
 113751599.807 7  88637614.66045                  21646201.891
  21646205.086                          44.000          33.200
 115217128.138 5  89613254.187 5                  21568870.188    21568867.879
  21568872.602                          32.800          35.600
 105940199.837 7  82397842.638 7                  19825237.422    19825237.227
  19825241.816                          44.900          45.700
 128505042.519 7                  95961576.138 7  24453697.141
                  24453702.766          43.900                          47.100
 126313267.103 7                  94324856.519 8  24036616.188
                  24036620.531          45.400                          49.800
 119792419.031 5                  89455395.321 6  22795738.555
                  22795742.555          35.100                          41.300
 121028242.922 7                  90378262.310 8  23030906.055
                  23030910.852          45.000                          48.700
 20  8 16  0 15  9.0000000  0 22R01G17G07G08G03R18R24R17G28G11G19R02
                                G30G01R14G22R16R15E36E02E14E30
 122594116.004 5  95351125.868 5                  22933791.922    22933792.133
  22933799.133                          31.200          31.500
 120295172.301 6  93736402.99446                  22891377.781
  22891383.750                          37.400          36.100
 127323758.045 5  99213374.37744                  24228919.711
  24228926.398                          31.800          25.500
 125859287.014 5  98072184.66843  93985835.111 7  23950225.656
  23950235.105    23950234.258          32.900          20.400          45.000
 113915482.053 7  88765413.74247  85066856.776 8  21677408.227
  21677416.000    21677416.941          42.100          44.400          50.200
 112508664.184 6  87506658.385 7                  21076637.352    21076637.207
  21076642.824                          40.000          42.100
 122358842.649 5  95168004.112 5                  22881724.586    22881724.359
  22881728.809                          35.000          34.600
 107205630.103 7  83382048.140 7                  20033906.344    20033904.266
  20033909.297                          43.700          44.500
 111025133.541 7  86513100.89445                  21127373.367
  21127378.254                          42.800          34.200
 115723434.641 6  90174108.13844                  22021434.891
  22021439.961                          39.000          25.600
 128412899.956 5 100062076.94542                  24436179.469
  24436184.102                          30.300          16.900
 120392442.239 6  93638590.606 6                  22561489.875    22561488.699
  22561495.379                          36.000          37.700
 121850823.206 6  94948733.28045  90992534.390 7  23187445.875
  23187454.230    23187453.762          36.600          34.400          45.100
 108574047.056 7  84603226.75346  81078084.641 8  20660964.391
  20660972.801    20660971.227          43.000          36.300          51.600
 119374106.036 6  92846548.764 6                  22394284.367    22394282.383
  22394288.652                          37.700          38.800
 113751337.988 7  88637410.64145                  21646152.039
  21646155.320                          44.100          34.000
 115214631.530 5  89611312.350 5                  21568402.875    21568400.402
  21568405.207                          33.400          35.300
 105941779.793 7  82399071.491 7                  19825533.500    19825533.090
  19825537.281                          45.000          45.500
 128506729.053 7                  95962835.577 7  24454018.039
                  24454023.676          44.200                          47.500
 126315156.638 7                  94326267.536 8  24036975.758
                  24036980.125          45.500                          49.800
 119786382.248 5                  89450887.345 6  22794589.609
                  22794593.844          35.600                          41.200
 121027366.022 7                  90377607.483 8  23030738.813
                  23030744.031          45.400                          48.900
 20  8 16  0 15 10.0000000  0 22R01G17G07G08G03R18R24R17G28G11G19R02
                                G30G01R14G22R16R15E36E02E14E30
 122594663.449 5  95351551.741 5                  22933895.055    22933894.449
  22933901.637                          30.600          31.500
 120293200.927 6  93734866.86746                  22891002.750
  22891008.637                          37.600          36.200
 127326941.460 5  99215854.94144                  24229524.625
  24229532.246                          31.300          26.000
 125861704.820 5  98074068.69143  93987640.585 7  23950685.750
  23950695.102    23950694.219          33.100          20.600          45.100
 113913354.961 7  88763756.26247  85065268.368 8  21677003.578
  21677011.117    21677012.109          42.100          44.700          50.200
 112507179.608 6  87505503.710 6                  21076359.672    21076359.109
  21076364.773                          39.900          41.900
 122361664.548 5  95170198.931 5                  22882253.148    22882251.551
  22882256.586                          34.600          34.400
 107206639.029 7  83382832.852 7                  20034094.758    20034092.844
  20034097.746                          43.900          44.100
 111023439.655 7  86511780.98545                  21127050.992
  21127055.906                          43.500          34.700
 115725946.629 6  90176065.54044                  22021913.219
  22021918.027                          39.300          24.500
 128410132.200 5 100059920.27442                  24435653.156
  24435657.523                          30.800          16.300
 120389386.051 6  93636213.540 6                  22560917.219    22560916.402
  22560922.762                          36.100          37.600
 121853339.377 6  94950693.93245  90994413.380 7  23187924.680
  23187933.059    23187932.453          36.400          34.700          45.000
 108576021.247 7  84604765.08146  81079558.878 8  20661339.828
  20661348.316    20661346.914          43.500          36.300          51.400
 119378439.200 6  92849918.965 6                  22395096.008    22395095.363
  22395101.508                          37.300          38.300
 113751076.801 7  88637207.12545                  21646102.805
  21646105.754                          44.300          33.800
 115212135.570 5  89609371.064 5                  21567934.656    21567933.449
  21567937.883                          33.600          35.600
 105943360.597 7  82400301.010 7                  19825828.836    19825828.512
  19825833.105                          45.000          44.900
 128508415.692 7                  95964095.080 7  24454338.781
                  24454344.645          44.400                          47.700
 126317046.530 7                  94327678.819 8  24037335.242
                  24037339.777          45.500                          49.900
 119780345.546 5                  89446379.418 6  22793441.063
                  22793445.063          35.900                          41.500
 121026489.550 7                  90376952.969 8  23030572.164
                  23030577.289          45.100                          49.100
 20  8 16  0 15 11.0000000  0 22R01G17G07G08G03R18R24R17G28G11G19R02
                                G30G01R14G22R16R15E36E02E14E30
 122595211.777 4  95351978.202 5                  22933997.945    22933997.098
  22934004.145                          29.700          30.900
 120291229.586 6  93733330.75246                  22890627.250
  22890633.336                          38.000          36.200
 127330125.072 5  99218335.68243                  24230131.766
  24230137.922                          31.900          23.500
 125864122.700 5  98075952.74743  93989446.162 7  23951146.055
  23951155.375    23951154.242          33.000          20.100          45.100
 113911228.399 7  88762099.20147  85063680.342 8  21676598.125
  21676606.492    21676607.453          42.600          44.400          50.000
 112505695.274 6  87504349.230 6                  21076082.070    21076081.125
  21076086.707                          39.800          41.900
 122364486.452 5  95172393.700 5                  22882781.828    22882779.555
  22882784.445                          34.800          33.700
 107207648.176 7  83383617.767 7                  20034283.773    20034281.383
  20034286.344                          44.100          44.000
 111021746.203 7  86510461.40745                  21126729.055
  21126733.699                          43.900          34.300
 115728458.743 6  90178023.03244                  22022391.320
  22022395.840                          39.200          24.700
 128407364.374 5 100057763.47742                  24435126.125
  24435130.805                          31.000          16.900
 120386330.180 5  93633836.766 6                  22560344.500    22560343.250
  22560350.266                          35.700          37.200
 121855855.866 6  94952654.83245  90996292.561 7  23188403.750
  23188411.949    23188411.273          37.100          34.700          45.100
 108577995.837 7  84606303.71846  81081033.399 8  20661715.609
  20661724.031    20661722.684          43.200          36.900          51.600
 119382772.539 6  92853289.364 6                  22395910.430    22395908.066
  22395914.531                          37.600          38.500
 113750816.239 7  88637004.09245                  21646052.922
  21646056.109                          43.900          34.200
 115209640.349 5  89607430.363 5                  21567465.805    21567466.383
  21567470.934                          33.100          35.300
 105944942.285 7  82401531.197 7                  19826123.703    19826124.520
  19826129.137                          44.700          45.200
 128510102.406 7                  95965354.630 7  24454660.016
                  24454665.691          44.500                          47.700
 126318936.797 7                  94329090.392 8  24037695.109
                  24037699.457          45.500                          49.800
 119774309.012 5                  89441871.616 6  22792291.766
                  22792296.430          35.500                          41.600
 121025613.510 7                  90376298.788 8  23030405.336
                  23030410.543          45.300                          48.800
 20  8 16  0 15 12.0000000  0 22R01G17G07G08G03R18R24R17G28G11G19R02
                                G30G01R14G22R16R15E36E02E14E30
 122595760.839 5  95352405.273 5                  22934099.625    22934099.953
  22934106.793                          30.500          30.300
 120289258.258 6  93731794.65946                  22890252.344
  22890258.141                          37.600          36.300
 127333308.495 5  99220816.27843                  24230737.719
  24230743.730                          31.600          22.900
 125866540.653 5  98077836.87243  93991251.783 7  23951605.750
  23951615.582    23951614.328          32.600          20.400          45.400
 113909102.305 7  88760442.50247  85062092.680 8  21676194.227
  21676202.039    21676202.914          42.500          44.600          50.100
 112504211.200 6  87503194.965 7                  21075804.078    21075803.184
  21075808.496                          39.600          42.100
 122367308.242 5  95174588.454 5                  22883307.398    22883307.297
  22883312.133                          34.600          34.000
 107208657.533 7  83384402.807 7                  20034472.000    20034470.223
  20034474.879                          44.100          44.400
 111020053.100 7  86509142.11745                  21126407.266
  21126411.563                          43.600          34.600
 115730971.028 6  90179980.67044                  22022869.180
  22022873.957                          39.600          24.200
 128404596.652 5 100055606.83542                  24434598.648
  24434604.098                          30.100          16.300
 120383274.684 6  93631460.263 6                  22559771.586    22559770.496
  22559777.781                          36.100          37.500
 121858372.555 6  94954615.88945  90998171.936 7  23188882.078
  23188890.730    23188890.227          37.300          35.200          45.200
 108579970.782 7  84607842.63546  81082508.203 8  20662091.648
  20662100.117    20662098.539          43.000          36.600          51.300
 119387106.041 6  92856659.839 6                  22396723.344    22396720.871
  22396727.633                          37.900          38.700
 113750556.281 7  88636801.52945                  21646003.617
  21646006.762                          43.400          34.200
 115207145.888 5  89605490.205 5                  21566998.219    21566999.582
  21567004.020                          33.200          35.700
 105946524.715 7  82402762.005 7                  19826420.164    19826420.500
  19826425.309                          45.000          45.100
 128511789.166 7                  95966614.231 7  24454980.797
                  24454986.648          44.400                          47.800
 126320827.403 7                  94330502.215 8  24038054.617
                  24038059.172          45.700                          49.600
 119768272.513 6                  89437363.834 6  22791143.172
                  22791147.727          36.200                          41.700
 121024737.866 7                  90375644.901 8  23030238.648
                  23030243.820          45.500                          48.800
 20  8 16  0 15 13.0000000  0 22R01G17G07G08G03R18R24R17G28G11G19R02
                                G30G01R14G22R16R15E36E02E14E30
 122596310.825 5  95352832.990 5                  22934202.320    22934202.336
  22934209.559                          30.600          30.800
 120287286.996 6  93730258.61045                  22889877.953
  22889883.156                          37.800          35.900
 127336491.965 5  99223296.91343                  24231344.086
  24231349.492                          32.200          22.300
 125868958.727 5  98079721.07443  93993057.494 7  23952065.531
  23952075.684    23952074.449          32.600          21.100          45.100
 113906976.754 7  88758786.22647  85060505.417 8  21675789.766
  21675797.520    21675798.359          42.400          44.500          50.300
 112502727.409 6  87502040.891 7                  21075525.969    21075525.160
  21075530.430                          39.700          42.300
 122370130.003 5  95176783.145 5                  22883835.273    22883835.152
  22883839.863                          34.200          34.600
 107209667.155 7  83385188.075 7                  20034660.141    20034659.094
  20034663.547                          43.600          44.300
 111018360.365 7  86507823.10045                  21126085.164
  21126089.266                          43.200          34.000
 115733483.504 6  90181938.41944                  22023347.969
  22023352.059                          39.000          24.800
 128401828.871 5 100053450.14242                  24434072.328
  24434077.254                          30.800          15.600
 120380219.527 5  93629084.086 6                  22559199.750    22559198.055
  22559205.254                          35.700          37.400
 121860889.572 6  94956577.19945  91000051.498 7  23189361.234
  23189369.648    23189369.199          37.400          34.400          45.600
 108581946.132 7  84609381.87046  81083983.294 8  20662467.398
  20662475.980    20662474.461          43.100          36.600          51.700
 119391439.732 6  92860030.494 6                  22397536.633    22397533.996
  22397540.727                          38.100          38.600
 113750296.947 7  88636599.45045                  21645953.813
  21645957.430                          43.700          34.200
 115204652.084 5  89603550.574 5                  21566531.961    21566533.383
  21566537.273                          33.100          35.600
 105948107.999 7  82403993.431 7                  19826717.305    19826716.828
  19826721.477                          44.900          45.100
 128513476.039 7                  95967873.903 8  24455302.008
                  24455307.684          44.400                          48.000
 126322718.408 7                  94331914.319 8  24038414.438
                  24038419.066          45.900                          49.800
 119762236.152 6                  89432856.165 6  22789994.859
                  22789999.133          36.000                          41.600
 121023862.666 7                  90374991.345 8  23030072.313
                  23030077.426          45.500                          49.000
 20  8 16  0 15 14.0000000  0 22R01G17G07G08G03R18R24R17G28G11G19R02
                                G30G01R14G22R16R15E36E02E14E30
 122596861.577 5  95353261.330 5                  22934306.367    22934305.328
  22934312.617                          31.200          30.400
 120285315.820 6  93728722.62746                  22889502.852
  22889508.039                          37.900          36.000
 127339675.451 5  99225777.54943                  24231950.164
  24231955.285                          31.200          22.900
 125871376.896 5  98081605.35443  93994863.262 7  23952525.773
  23952535.824    23952534.613          33.200          20.600          45.100
 113904851.734 7  88757130.36747  85058918.541 8  21675385.031
  21675393.117    21675393.973          42.000          44.700          50.300
 112501243.895 6  87500887.061 6                  21075248.852    21075247.355
  21075252.719                          39.800          41.900
 122372951.734 5  95178977.850 5                  22884362.563    22884362.816
  22884367.582                          34.000          34.400
 107210676.971 7  83385973.490 7                  20034848.664    20034847.617
  20034852.188                          43.400          44.700
 111016668.023 7  86506504.38745                  21125762.703
  21125767.270                          42.900          34.600
 115735996.145 6  90183896.30944                  22023826.047
  22023830.246                          39.200          24.900
 128399061.178 5 100051293.48942                  24433545.094
  24433550.539                          30.800          15.600
 120377164.839 5  93626708.127 6                  22558627.500    22558625.441
  22558632.762                          35.500          38.100
 121863406.852 6  94958538.71245  91001931.288 7  23189841.109
  23189848.699    23189848.211          37.800          34.900          45.200
 108583921.882 7  84610921.41646  81085458.696 8  20662843.109
  20662851.973    20662850.414          43.400          36.700          51.900
 119395773.682 6  92863401.335 6                  22398349.180    22398347.461
  22398353.824                          38.100          38.900
 113750038.244 7  88636397.86845                  21645904.727
  21645908.180                          43.400          34.300
 115202158.982 5  89601611.499 5                  21566065.281    21566066.664
  21566070.453                          33.600          35.600
 105949692.148 7  82405225.539 7                  19827013.297    19827013.246
  19827018.000                          44.600          45.100
 128515162.999 7                  95969133.645 7  24455623.008
                  24455628.609          44.300                          47.900
 126324609.788 7                  94333326.712 8  24038774.578
                  24038778.980          45.700                          49.300
 119756199.898 6                  89428348.589 6  22788846.414
                  22788850.508          36.000                          41.300
 121022987.911 7                  90374338.113 8  23029906.031
                  23029910.906          45.200                          48.800
 20  8 16  0 15 15.0000000  0 22R01G17G07G08G03R18R24R17G28G11G19R02
                                G30G01R14G22R16R15E36E02E14E30
 122597413.096 5  95353690.314 5                  22934410.539    22934408.617
  22934415.730                          30.700          31.200
 120283344.642 6  93727186.64546                  22889127.688
  22889132.891                          38.300          36.100
 127342858.857 5  99228258.13543                  24232555.039
  24232560.984                          31.600          22.600
 125873795.148 5  98083489.69043  93996669.106 7  23952986.625
  23952996.133    23952994.656          33.000          21.100          45.000
 113902727.165 6  88755474.85747  85057332.029 8  21674981.109
  21674988.809    21674989.703          41.900          44.700          50.200
 112499760.659 6  87499733.424 6                  21074970.445    21074969.633
  21074974.816                          40.100          41.900
 122375773.467 5  95181172.508 5                  22884890.766    22884890.391
  22884895.340                          33.800          34.500
 107211686.999 7  83386759.053 7                  20035037.367    20035036.422
  20035041.090                          43.600          44.100
 111014976.109 7  86505186.01545                  21125441.016
  21125445.164                          43.100          34.600
 115738508.958 6  90185854.35344                  22024304.148
  22024308.438                          39.200          24.800
 128396293.474 5 100049136.85242                  24433019.195
  24433023.883                          31.600          16.300
 120374110.519 5  93624332.627 6                  22558053.922    22558052.816
  22558060.469                          35.700          37.700
 121865924.368 6  94960500.41545  91003811.254 7  23190319.898
  23190327.680    23190327.359          38.000          33.900          45.000
 108585898.009 7  84612461.25246  81086934.367 8  20663219.500
  20663227.996    20663226.535          43.400          37.300          51.800
 119400107.835 6  92866772.339 6                  22399160.586    22399160.676
  22399167.070                          37.800          38.700
 113749780.177 7  88636196.77145                  21645856.109
  21645858.973                          43.500          33.700
 115199666.512 5  89599672.924 5                  21565598.453    21565599.984
  21565603.754                          33.700          35.600
 105951277.132 7  82406458.309 7                  19827309.930    19827309.891
  19827314.637                          44.600          45.600
 128516849.990 7                  95970393.409 7  24455944.070
                  24455949.723          44.400                          47.700
 126326501.526 7                  94334739.363 8  24039134.344
                  24039139.004          45.600                          49.300
 119750163.727 5                  89423841.030 6  22787697.680
                  22787702.078          35.400                          41.600
 121022113.541 7                  90373685.183 8  23029739.359
                  23029744.477          45.300                          48.700
 20  8 16  0 15 16.0000000  0 22R01G17G07G08G03R18R24R17G28G11G19R02
                                G30G01R14G22R16R15E36E02E14E30
 122597965.402 5  95354119.908 5                  22934514.031    22934512.258
  22934518.980                          30.600          30.500
 120281373.491 6  93725650.69346                  22888752.867
  22888757.738                          38.700          36.000
 127346042.284 5  99230738.72443                  24233161.008
  24233166.820                          32.200          23.400
 125876213.481 5  98085374.12043  93998474.992 7  23953446.938
  23953456.238    23953454.891          33.400          21.500          45.100
 113900603.130 6  88753819.76847  85055745.889 8  21674576.578
  21674584.594    21674585.555          41.500          44.700          50.100
 112498277.675 6  87498580.014 6                  21074692.469    21074691.762
  21074696.875                          39.700          41.900
 122378595.108 5  95183367.110 5                  22885418.320    22885417.406
  22885422.988                          34.100          34.400
 107212697.241 7  83387544.814 7                  20035225.898    20035225.227
  20035229.820                          43.900          44.100
 111013284.508 7  86503867.88145                  21125118.695
  21125123.340                          43.700          34.100
 115741021.914 6  90187812.51444                  22024781.930
  22024786.695                          39.300          24.700
 128393525.710 5 100046980.15842                  24432492.734
  24432497.246                          30.800          16.300
 120371056.492 5  93621957.263 6                  22557481.367    22557480.059
  22557488.145                          35.800          37.500
 121868442.164 6  94962462.33845  91005691.415 7  23190798.563
  23190806.785    23190806.629          37.800          34.000          45.100
 108587874.501 7  84614001.37646  81088410.334 8  20663595.344
  20663604.090    20663602.590          43.400          36.200          51.900
 119404442.193 6  92870143.515 6                  22399974.500    22399973.332
  22399980.180                          38.000          39.000
 113749522.692 7  88635996.13945                  21645806.828
  21645809.934                          43.600          34.500
 115197174.776 5  89597734.875 5                  21565133.242    21565133.926
  21565137.430                          33.000          35.300
 105952863.001 7  82407691.748 7                  19827607.313    19827606.516
  19827611.340                          44.900          45.300
 128518537.079 7                  95971653.262 7  24456265.016
                  24456270.730          44.600                          47.600
 126328393.614 7                  94336152.291 8  24039494.688
                  24039498.938          45.700                          49.200
 119744127.637 6                  89419333.589 6  22786549.016
                  22786553.305          36.200                          41.100
 121021239.620 7                  90373032.570 8  23029573.156
                  23029578.160          45.700                          48.800
 20  8 16  0 15 17.0000000  0 22R01G17G07G08G03R18R24R17G28G11G19R02
                                G30G01R14G22R16R15E36E02E14E30
 122598518.618 5  95354550.141 4                  22934617.578    22934615.523
  22934622.527                          30.600          29.600
 120279402.470 6  93724114.83646                  22888377.305
  22888382.578                          38.400          36.300
 127349225.723 5  99233219.31243                  24233767.148
  24233772.695                          31.800          22.900
 125878631.930 5  98087258.61843  94000280.985 7  23953907.258
  23953916.359    23953914.977          33.200          21.100          44.700
 113898479.669 6  88752165.12647  85054160.186 8  21674172.828
  21674180.711    21674181.367          41.900          44.600          50.200
 112496795.056 6  87497426.852 7                  21074414.117    21074413.844
  21074419.063                          39.900          42.100
 122381416.797 5  95185561.745 5                  22885946.133    22885945.832
  22885950.676                          34.900          34.700
 107213707.787 7  83388330.792 7                  20035415.242    20035413.938
  20035418.441                          43.800          44.400
 111011593.390 7  86502550.13445                  21124796.742
  21124801.586                          43.400          34.600
 115743535.052 6  90189770.80744                  22025260.289
  22025264.883                          39.600          24.400
 128390757.986 5 100044823.46542                  24431965.328
  24431970.504                          30.100          15.600
 120368002.958 6  93619582.316 6                  22556909.008    22556908.082
  22556915.895                          36.300          37.700
 121870960.233 6  94964424.47145  91007571.806 7  23191277.836
  23191285.891    23191285.746          38.200          33.700          45.300
 108589851.431 7  84615541.84446  81089886.614 8  20663971.313
  20663980.250    20663978.695          43.400          36.200          51.600
 119408776.780 6  92873514.863 6                  22400786.891    22400786.383
  22400793.277                          37.700          38.500
 113749265.892 7  88635796.03145                  21645757.953
  21645761.094                          43.400          34.800
 115194683.767 5  89595797.419 5                  21564667.352    21564667.270
  21564671.172                          33.600          35.300
 105954449.725 7  82408925.881 7                  19827903.172    19827903.551
  19827908.215                          44.600          45.400
 128520224.289 7                  95972913.183 8  24456585.961
                  24456591.840          44.500                          48.100
 126330286.107 7                  94337565.516 8  24039854.836
                  24039859.242          45.700                          49.200
 119738091.719 6                  89414826.245 6  22785400.383
                  22785404.684          36.100                          40.900
 121020366.161 7                  90372380.313 8  23029406.820
                  23029412.043          45.700                          49.100
 20  8 16  0 15 18.0000000  0 22R01G17G07G08G03R18R24R17G28G11G19R02
                                G30G01R14G22R16R15E36E02E14E30
 122599072.582 5  95354981.033 5                  22934720.953    22934719.438
  22934726.059                          30.800          30.800
 120277431.453 6  93722578.97146                  22888002.773
  22888007.742                          38.400          36.000
 127352409.099 5  99235699.85143                  24234372.000
  24234378.488                          32.800          23.900
 125881050.511 5  98089143.20743  94002087.041 7  23954367.117
  23954376.531    23954375.316          33.300          21.100          44.700
 113896356.664 7  88750510.83847  85052574.844 8  21673769.023
  21673776.633    21673777.379          42.100          44.500          50.200
 112495312.720 6  87496273.900 6                  21074136.750    21074136.297
  21074141.406                          40.000          41.400
 122384238.387 5  95187756.349 5                  22886473.359    22886473.547
  22886478.211                          34.500          34.900
 107214718.558 7  83389116.945 7                  20035604.734    20035602.617
  20035607.391                          43.600          44.200
 111009902.623 7  86501232.64945                  21124474.844
