     2.11           OBSERVATION DATA    M (MIXED)           RINEX VERSION / TYPE
teqc  2016Nov7      KASI/KOREA          20200816 00:48:08UTCPGM / RUN BY / DATE
Linux 2.4.20-8|Pentium IV|gcc|Linux|486/DX+                 COMMENT
  0.0000      (antenna height)                              COMMENT
 +36.39942714 (latitude)                                    COMMENT
+127.37448264 (longitude)                                   COMMENT
0116.859      (elevation)                                   COMMENT
BIT 2 OF LLI FLAGS DATA COLLECTED UNDER A/S CONDITION       COMMENT
23902M002 (COGO code)                                       COMMENT
DAEJ                                                        MARKER NAME
23902M002                                                   MARKER NUMBER
KASI GPS            KASI/KOREA                              OBSERVER / AGENCY
5412K48145          TRIMBLE NETR9       5.44                REC # / TYPE / VERS
4923363230          TRM59800.00     SCIS                    ANT # / TYPE
 -3120042.7911  4084613.6545  3764026.8131                  APPROX POSITION XYZ
        0.0000        0.0000        0.0000                  ANTENNA: DELTA H/E/N
     1     1                                                WAVELENGTH FACT L1/2
    10    L1    L2    L5    C1    P1    P2    C5    S1    S2# / TYPES OF OBSERV
          S5                                                # / TYPES OF OBSERV
    18                                                      LEAP SECONDS
 SNR is mapped to RINEX snr flag value [0-9]                COMMENT
  L1 & L2: min(max(int(snr_dBHz/6), 0), 9)                  COMMENT
  2020     8    16     0    30    0.0000000     GPS         TIME OF FIRST OBS
                                                            END OF HEADER
 20  8 16  0 30  0.0000000  0 23R01G17G08G03R18R24G06R17G28G11G19R02
                                G30G01R14G22R16R15E36E02E14E15E30
 123401247.969 5  95978895.392 5                  23084782.492    23084782.492
  23084789.512                          30.300          30.400
 118559357.775 6  92383820.81046                  22561063.047
  22561067.863                          40.000          37.700
 128053391.520 4  99781908.29842  95624288.404 6  24367751.719
  24367760.750    24367759.035          29.900          13.900          40.400
 112236976.909 7  87457488.08147  83813428.148 8  21357998.891
  21358006.859    21358007.309          42.900          46.000          51.000
 111295382.608 6  86562995.369 7                  20849350.125    20849349.215
  20849353.266                          41.200          42.700
 124857205.646 4  97111173.827 5                  23348933.773    23348931.785
  23348936.559                          29.600          32.600
 129552249.697 5 100949808.31144  96743565.206 6  24652964.711
  24652973.605    24652973.891          30.800          25.600          39.800
 108190330.458 7  84147926.145 7                  20217920.695    20217919.391
  20217923.672                          43.400          43.600
 109680565.962 7  85465385.91545                  20871511.438
  20871515.543                          43.800          35.900
 118026834.838 6  91968964.84043                  22459758.008
  22459763.012                          37.800          22.300
 125953816.979 5  98145909.05542                  23968231.641
  23968235.344                          31.800          17.400
 117837509.148 6  91651421.687 6                  22082695.867    22082694.766
  22082700.430                          37.700          38.800
 124187206.322 5  96769290.89145  92737235.258 7  23632044.297
  23632053.352    23632054.352          34.200          30.500          44.500
 110479556.413 7  86088039.17945  82501029.878 8  21023570.750
  21023579.164    21023577.695          42.800          34.300          50.900
 123301584.423 5  95901252.421 5                  23131069.711    23131068.918
  23131075.402                          34.700          35.000
 113768461.516 7  88650753.91745                  21649410.133
  21649413.566                          42.600          34.300
 113282044.936 5  88108189.679 6                  21206618.766    21206616.656
  21206620.508                          34.900          36.500
 107676531.307 7  83748322.498 7                  20150167.992    20150167.711
  20150172.527                          44.100          44.500
 130039300.425 7                  97107288.176 7  24745656.602
                  24745662.406          43.400                          47.500
 128142960.843 7                  95691185.962 8  24384795.367
                  24384800.258          44.800                          48.900
 114468831.234 6                  85479989.809 7  21782692.758
                  21782697.086          37.400                          42.900
 138218373.418 6                 103215045.390 6  26302082.461
                  26302088.816          36.200                          41.500
 120422177.614 7                  89925680.998 8  22915575.617
                  22915580.703          46.100                          49.400
 20  8 16  0 30  1.0000000  0 23R01G17G08G03R18R24G06R17G28G11G19R02
                                G30G01R14G22R16R15E36E02E14E15E30
 123402509.513 4  95979876.562 5                  23085017.547    23085018.352
  23085025.570                          29.600          30.000
 118557433.861 6  92382321.65846                  22560697.344
  22560701.824                          40.000          38.100
 128055899.109 5  99783862.25642  95626160.963 6  24368228.250
  24368237.938    24368236.211          30.100          15.600          40.500
 112235348.333 7  87456219.06047  83812212.014 8  21357688.836
  21357696.816    21357697.523          42.600          45.800          50.800
 111294140.186 6  86562029.069 7                  20849117.039    20849116.191
  20849120.727                          41.100          43.000
 124859989.468 4  97113339.018 5                  23349454.148    23349452.430
  23349457.227                          29.500          33.000
 129549170.908 4 100947409.25544  96741266.103 6  24652379.422
  24652387.543    24652387.781          29.400          25.000          39.000
 108191525.933 7  84148855.980 7                  20218144.086    20218142.898
  20218147.051                          43.400          43.300
 109679251.841 7  85464361.92345                  20871260.805
  20871265.422                          43.600          35.900
 118029488.231 6  91971032.43043                  22460263.180
  22460268.023                          37.700          22.600
 125951066.291 5  98143765.68343                  23967708.180
  23967711.957                          31.200          18.600
 117834852.339 6  91649355.293 6                  22082198.492    22082196.750
  22082202.734                          37.800          39.300
 124189919.627 5  96771405.15245  92739261.445 7  23632561.242
  23632569.801    23632570.680          34.300          30.900          44.800
 110481848.164 7  86089824.96445  82502741.258 8  21024006.750
  21024015.297    21024013.766          42.600          34.100          50.900
 123306047.664 5  95904723.816 5                  23131907.805    23131906.270
  23131912.586                          34.300          35.300
 113768762.304 6  88650988.30445                  21649467.867
  21649470.797                          41.900          34.400
 113280217.879 5  88106768.595 6                  21206276.852    21206274.707
  21206278.559                          34.900          36.200
 107678831.905 7  83750111.863 7                  20150598.711    20150598.336
  20150603.035                          44.000          44.100
 130041049.733 7                  97108594.473 7  24745989.867
                  24745995.180          43.200                          47.000
 128145168.361 7                  95692834.426 8  24385215.445
                  24385220.391          44.900                          48.800
 114462953.287 6                  85475600.431 7  21781574.289
                  21781578.523          37.100                          43.300
 138216498.961 5                 103213645.629 6  26301725.539
                  26301731.996          35.900                          41.600
 120421700.464 7                  89925324.672 8  22915484.891
                  22915489.895          45.900                          49.500
 20  8 16  0 30  2.0000000  0 23R01G17G08G03R18R24G06R17G28G11G19R02
                                G30G01R14G22R16R15E36E02E14E15E30
 123403771.774 4  95980858.316 5                  23085254.742    23085254.551
  23085261.621                          29.700          31.000
 118555509.963 6  92380822.51546                  22560331.055
  22560335.695                          39.000          38.200
 128058406.792 5  99785816.24942  95628033.576 6  24368705.367
  24368715.039    24368713.371          30.500          14.800          40.800
 112233720.320 7  87454950.48347  83810996.298 8  21357379.383
  21357387.074    21357387.637          43.000          46.000          50.600
 111292898.056 6  86561062.965 7                  20848884.547    20848883.430
  20848887.934                          41.100          42.800
 124862773.269 4  97115504.158 5                  23349974.203    23349973.395
  23349977.840                          28.800          33.000
 129546092.252 4 100945010.27544  96738967.097 6  24651793.563
  24651801.820    24651802.004          29.900          25.600          39.500
 108192721.574 7  84149785.915 7                  20218367.781    20218366.297
  20218370.496                          43.700          43.600
 109677938.160 7  85463338.28346                  20871011.109
  20871015.359                          43.700          36.100
 118032141.736 6  91973100.08443                  22460768.602
  22460773.023                          38.300          21.800
 125948315.619 5  98141622.25943                  23967184.336
  23967188.438                          31.300          18.300
 117832196.024 6  91647289.286 6                  22081699.914    22081699.238
  22081704.980                          37.900          39.200
 124192633.082 5  96773519.54045  92741287.732 7  23633077.531
  23633085.988    23633086.988          34.500          30.500          44.700
 110484140.237 7  86091610.99145  82504452.859 8  21024442.891
  21024451.430    21024449.813          42.700          33.900          50.700
 123310510.933 5  95908195.258 5                  23132745.070    23132743.219
  23132749.965                          34.100          35.400
 113769063.696 7  88651223.14945                  21649525.188
  21649528.199                          42.600          34.200
 113278391.542 5  88105348.138 6                  21205934.656    21205933.129
  21205936.676                          34.300          36.500
 107681133.213 7  83751901.752 7                  20151028.867    20151029.098
  20151033.664                          44.100          44.300
 130042799.050 7                  97109900.793 7  24746322.164
                  24746328.086          43.900                          46.800
 128147376.156 7                  95694483.110 8  24385635.547
                  24385640.469          44.900                          48.800
 114457075.567 6                  85471211.228 7  21780455.555
                  21780460.199          37.300                          43.500
 138214624.621 6                 103212245.965 6  26301369.109
                  26301375.250          36.800                          41.400
 120421223.727 7                  89924968.667 8  22915394.031
                  22915399.305          45.700                          49.500
 20  8 16  0 30  3.0000000  0 23R01G17G08G03R18R24G06R17G28G11G19R02
                                G30G01R14G22R16R15E36E02E14E15E30
 123405034.846 5  95981840.719 5                  23085490.563    23085491.219
  23085497.813                          30.300          31.500
 118553586.151 6  92379323.44146                  22559964.602
  22559969.492                          38.900          38.400
 128060914.618 5  99787770.48442  95629906.296 6  24369182.313
  24369192.371    24369190.395          30.300          16.300          40.500
 112232092.942 7  87453682.39347  83809781.045 8  21357069.578
  21357077.395    21357077.941          43.600          45.900          50.300
 111291656.225 6  86560097.065 7                  20848651.539    20848651.039
  20848655.305                          41.000          43.300
 124865557.037 4  97117669.302 5                  23350495.281    23350493.457
  23350498.453                          28.000          32.900
 129543013.759 4 100942611.45144  96736668.245 6  24651206.719
  24651215.828    24651216.133          29.600          25.000          39.400
 108193917.440 7  84150716.032 7                  20218590.859    20218589.793
  20218594.156                          43.400          43.600
 109676624.950 7  85462314.99045                  20870760.805
  20870765.391                          44.000          35.700
 118034795.422 6  91975167.90143                  22461273.172
  22461278.078                          38.600          22.800
 125945564.991 5  98139478.92143                  23966662.000
  23966665.004                          30.800          18.300
 117829540.217 6  91645223.637 6                  22081202.117    22081201.414
  22081207.438                          37.900          38.800
 124195346.766 5  96775634.09745  92743314.158 7  23633594.023
  23633602.355    23633603.379          34.500          30.500          44.900
 110486432.638 7  86093397.27545  82506164.716 8  21024878.883
  21024887.598    21024886.234          43.000          34.400          50.300
 123314974.326 5  95911666.781 5                  23133581.883    23133580.910
  23133587.273                          34.400          35.600
 113769365.733 7  88651458.51245                  21649582.719
  21649585.641                          42.800          34.500
 113276566.105 5  88103928.326 6                  21205592.883    21205590.922
  21205594.891                          34.300          36.900
 107683435.282 7  83753692.256 7                  20151459.875    20151459.895
  20151464.512                          44.300          44.600
 130044548.468 7                  97111207.167 7  24746655.344
                  24746660.973          43.500                          46.800
 128149584.322 7                  95696132.067 8  24386055.922
                  24386060.578          45.200                          48.800
 114451198.088 6                  85466822.185 7  21779337.445
                  21779341.441          37.800                          43.300
 138212750.436 6                 103210846.431 6  26301012.516
                  26301018.609          36.800                          41.400
 120420747.455 7                  89924613.023 8  22915303.508
                  22915308.461          45.600                          49.700
 20  8 16  0 30  4.0000000  0 23R01G17G08G03R18R24G06R17G28G11G19R02
                                G30G01R14G22R16R15E36E02E14E15E30
 123406298.610 5  95982823.668 5                  23085726.281    23085727.281
  23085734.332                          30.000          30.700
 118551662.345 6  92377824.36946                  22559598.203
  22559603.402                          38.700          38.300
 128063422.438 5  99789724.59442  95631779.029 6  24369659.648
  24369669.590    24369668.102          30.500          16.300          40.100
 112230466.065 7  87452414.69947  83808566.183 8  21356759.914
  21356767.754    21356768.367          43.500          45.900          50.500
 111290414.590 6  86559131.359 7                  20848418.398    20848417.930
  20848422.785                          40.900          43.000
 124868340.609 4  97119834.348 5                  23351015.516    23351013.754
  23351019.082                          29.000          32.300
 129539935.413 5 100940212.75744  96734369.480 6  24650620.898
  24650630.023    24650630.461          30.100          24.900          39.400
 108195113.418 7  84151646.232 7                  20218814.289    20218813.188
  20218817.555                          43.600          43.800
 109675312.117 7  85461292.00346                  20870511.016
  20870515.602                          43.900          36.300
 118037449.152 6  91977235.73343                  22461777.938
  22461783.039                          37.700          22.800
 125942814.285 5  98137335.48742                  23966137.820
  23966141.727                          30.700          17.800
 117826884.829 6  91643158.355 6                  22080703.969    22080703.395
  22080709.852                          37.800          38.400
 124198060.480 5  96777748.68045  92745340.654 7  23634110.414
  23634118.695    23634119.715          34.600          30.200          45.100
 110488725.275 7  86095183.74645  82507876.757 8  21025315.289
  21025323.977    21025322.320          42.700          33.900          50.100
 123319437.699 5  95915138.296 5                  23134418.836    23134418.410
  23134424.727                          34.100          35.800
 113769668.354 7  88651694.30645                  21649640.281
  21649643.332                          42.700          34.500
 113274741.334 5  88102509.080 6                  21205251.063    21205249.598
  21205253.375                          34.100          36.500
 107685738.053 7  83755483.295 7                  20151891.289    20151890.730
  20151895.395                          44.100          44.300
 130046297.856 7                  97112513.520 7  24746988.242
                  24746994.027          43.600                          46.700
 128151792.756 7                  95697781.210 8  24386475.852
                  24386480.938          44.900                          48.400
 114445320.803 6                  85462433.325 7  21778219.203
                  21778223.141          37.700                          43.600
 138210876.356 6                 103209446.945 6  26300656.031
                  26300661.887          36.200                          41.600
 120420271.609 7                  89924257.670 8  22915212.828
                  22915217.918          45.400                          49.400
 20  8 16  0 30  5.0000000  0 23R01G17G08G03R18R24G06R17G28G11G19R02
                                G30G01R14G22R16R15E36E02E14E15E30
 123407563.238 5  95983807.273 5                  23085964.055    23085963.633
  23085970.816                          30.300          30.700
 118549738.650 6  92376325.38846                  22559232.063
  22559237.203                          38.900          38.100
 128065930.418 5  99791678.82642  95633651.922 6  24370136.211
  24370146.770    24370145.238          30.800          15.600          39.900
 112228839.875 7  87451147.53247  83807351.816 8  21356450.375
  21356458.262    21356458.945          43.200          45.900          50.700
 111289173.301 6  86558165.922 7                  20848186.680    20848185.238
  20848190.355                          41.200          43.100
 124871124.198 4  97121999.315 5                  23351536.219    23351534.688
  23351539.754                          28.800          32.100
 129536857.352 5 100937814.26944  96732070.952 6  24650036.109
  24650044.422    24650044.672          30.300          25.400          39.700
 108196309.655 7  84152576.638 7                  20219036.992    20219036.941
  20219041.090                          43.100          44.000
 109673999.828 7  85460269.44846                  20870261.203
  20870265.875                          43.800          36.500
 118040103.171 6  91979303.79043                  22462283.484
  22462288.098                          37.600          22.300
 125940063.755 5  98135192.27842                  23965613.938
  23965618.422                          31.600          17.400
 117824230.060 6  91641093.528 6                  22080207.227    22080205.988
  22080212.227                          38.100          38.500
 124200774.493 5  96779863.49045  92747367.346 7  23634627.039
  23634635.180    23634635.992          34.300          30.600          44.700
 110491018.322 7  86096970.53645  82509589.098 8  21025752.117
  21025760.355    21025758.844          42.600          33.800          50.500
 123323901.222 5  95918609.927 5                  23135256.906    23135255.297
  23135262.070                          33.900          35.800
 113769971.700 7  88651930.68345                  21649698.039
  21649700.844                          42.600          33.600
 113272917.500 5  88101090.548 6                  21204907.680    21204908.328
  21204911.949                          34.100          36.800
 107688041.686 7  83757275.007 7                  20152322.797    20152321.797
  20152326.426                          44.000          44.300
 130048047.377 7                  97113819.998 7  24747321.117
                  24747326.988          43.400                          46.800
 128154001.598 7                  95699430.680 8  24386896.391
                  24386901.297          44.900                          48.500
 114439443.837 6                  85458044.691 7  21777100.781
                  21777104.801          37.900                          43.300
 138209002.534 6                 103208047.644 6  26300299.219
                  26300305.109          36.400                          41.900
 120419796.278 7                  89923902.720 8  22915122.336
                  22915127.441          45.600                          49.100
 20  8 16  0 30  6.0000000  0 23R01G17G08G03R18R24G06R17G28G11G19R02
                                G30G01R14G22R16R15E36E02E14E15E30
 123408828.657 5  95984791.495 5                  23086201.078    23086200.566
  23086207.621                          30.500          31.200
 118547814.972 6  92374826.41846                  22558866.461
  22558871.191                          39.600          38.500
 128068438.570 5  99793633.25442  95635524.839 6  24370612.758
  24370624.043    24370622.410          30.500          14.800          40.200
 112227214.285 7  87449880.84247  83806137.897 8  21356141.336
  21356149.012    21356149.648          43.200          46.000          50.700
 111287932.231 6  86557200.646 7                  20847952.891    20847952.891
  20847957.984                          41.100          42.600
 124873907.693 4  97124164.304 5                  23352057.563    23352054.867
  23352060.293                          29.900          31.700
 129533779.483 5 100935415.92144  96729772.514 6  24649449.781
  24649458.449    24649459.137          30.500          26.000          39.600
 108197506.058 7  84153507.195 7                  20219261.344    20219260.625
  20219264.738                          43.400          44.000
 109672687.969 7  85459247.22046                  20870011.789
  20870016.316                          43.800          36.600
 118042757.268 6  91981371.91443                  22462788.164
  22462793.070                          36.800          22.600
 125937313.171 5  98133048.99843                  23965090.383
  23965094.965                          31.800          18.300
 117821575.797 6  91639029.086 6                  22079709.117    22079708.629
  22079714.750                          38.300          38.600
 124203488.642 5  96781978.41545  92749394.133 7  23635143.328
  23635151.742    23635152.535          34.300          30.400          44.300
 110493311.650 7  86098757.55645  82511301.642 8  21026188.734
  21026196.910    21026195.160          42.700          33.900          50.200
 123328364.805 5  95922081.601 5                  23136094.375    23136092.586
  23136099.457                          34.300          35.400
 113770275.625 7  88652167.51145                  21649755.688
  21649758.598                          43.000          34.000
 113271094.410 5  88099672.591 6                  21204566.914    21204566.660
  21204570.664                          33.800          36.800
 107690346.013 7  83759067.282 7                  20152753.391    20152752.730
  20152757.758                          44.000          44.200
 130049796.954 7                  97115126.478 7  24747654.070
                  24747659.879          43.900                          46.900
 128156210.760 7                  95701080.378 8  24387316.859
                  24387321.598          45.100                          48.600
 114433567.124 6                  85453656.230 7  21775981.891
                  21775986.352          37.900                          43.400
 138207128.809 6                 103206648.435 6  26299942.813
                  26299948.898          36.000                          41.200
 120419321.393 7                  89923548.103 8  22915031.953
                  22915037.102          45.800                          49.100
 20  8 16  0 30  7.0000000  0 23R01G17G08G03R18R24G06R17G28G11G19R02
                                G30G01R14G22R16R15E36E02E14E15E30
 123410094.856 5  95985776.292 5                  23086437.984    23086437.480
  23086444.316                          30.400          31.400
 118545891.333 6  92373327.47446                  22558500.172
  22558505.211                          39.600          39.100
 128070946.685 5  99795587.65542  95637397.808 6  24371090.664
  24371101.379    24371099.906          30.800          14.800          40.200
 112225589.242 7  87448614.57747  83804924.390 8  21355831.984
  21355839.762    21355840.246          43.500          46.200          50.200
 111286691.342 6  86556235.522 7                  20847720.945    20847720.566
  20847725.313                          40.500          42.700
 124876691.173 4  97126329.232 5                  23352576.563    23352575.367
  23352580.797                          29.200          31.400
 129530701.747 5 100933017.68844  96727474.190 6  24648864.695
  24648872.734    24648873.555          30.300          26.200          39.400
 108198702.664 7  84154437.870 7                  20219485.297    20219484.156
  20219488.313                          43.200          43.500
 109671376.530 7  85458225.32046                  20869762.445
  20869766.852                          44.100          36.200
 118045411.472 6  91983440.12643                  22463293.258
  22463298.277                          37.000          22.000
 125934562.533 5  98130905.62342                  23964566.539
  23964571.484                          31.500          17.800
 117818921.993 6  91636965.021 6                  22079212.703    22079211.348
  22079217.488                          38.500          38.900
 124206202.923 5  96784093.43345  92751421.045 7  23635659.859
  23635668.488    23635668.980          34.400          30.100          44.100
 110495605.263 7  86100544.78645  82513014.410 8  21026624.492
  21026633.398    21026631.559          43.200          33.800          50.400
 123332828.507 5  95925553.319 5                  23136931.008    23136930.043
  23136936.836                          34.800          35.800
 113770580.167 7  88652404.80845                  21649813.609
  21649816.551                          42.900          34.200
 113269272.047 5  88098255.184 6                  21204226.500    21204225.453
  21204229.379                          34.200          36.900
 107692651.118 7  83760860.109 7                  20153184.766    20153184.289
  20153189.039                          44.300          44.200
 130051546.500 7                  97116433.001 7  24747986.883
                  24747992.730          44.300                          46.900
 128158420.204 7                  95702730.301 8  24387737.188
                  24387742.035          45.100                          48.300
 114427690.611 6                  85449267.942 7  21774864.016
                  21774867.969          37.600                          43.300
 138205255.204 6                 103205249.328 6  26299586.219
                  26299592.379          36.700                          41.400
 120418846.927 7                  89923193.796 8  22914941.703
                  22914946.852          45.900                          49.300
 20  8 16  0 30  8.0000000  0 23R01G17G08G03R18R24G06R17G28G11G19R02
                                G30G01R14G22R16R15E36E02E14E15E30
 123411361.822 5  95986761.674 5                  23086673.594    23086674.004
  23086681.352                          30.600          30.400
 118543967.803 6  92371828.62446                  22558134.188
  22558139.078                          39.200          38.700
 128073454.969 5  99797542.16842  95639270.904 6  24371569.031
  24371578.520    24371577.402          31.000          14.800          40.700
 112223964.831 7  87447348.80447  83803711.358 8  21355523.039
  21355530.609    21355531.309          43.100          45.900          50.800
 111285450.758 6  86555270.636 7                  20847488.914    20847488.121
  20847493.039                          40.400          42.400
 124879474.68514  97128494.143 5                  23353097.625    23353096.148
  23353101.176                          29.300          31.900
 129527624.196 5 100930619.60444  96725176.061 6  24648279.438
  24648287.063    24648287.820          30.500          25.500          39.400
 108199899.471 7  84155368.717 7                  20219707.867    20219707.875
  20219711.941                          43.500          43.600
 109670065.596 7  85457203.80746                  20869513.156
  20869517.254                          44.100          36.300
 118048065.844 6  91985508.47543                  22463798.992
  22463803.363                          37.300          22.800
 125931811.994 5  98128762.33342                  23964042.852
  23964048.020                          31.600          17.800
 117816268.741 6  91634901.426 6                  22078714.789    22078714.523
  22078720.215                          38.600          38.600
 124208917.444 5  96786208.64445  92753448.084 7  23636177.273
  23636184.941    23636185.688          33.900          30.400          44.500
 110497899.240 7  86102332.29145  82514727.445 8  21027061.117
  21027069.910    21027068.063          43.000          34.100          50.200
 123337292.255 5  95929025.156 5                  23137768.344    23137767.496
  23137774.160                          34.500          35.800
 113770885.345 7  88652642.61545                  21649871.266
  21649874.633                          42.500          34.600
 113267450.528 5  88096838.443 6                  21203886.766    21203884.586
  21203888.434                          34.500          36.700
 107694956.982 7  83762653.578 7                  20153616.563    20153615.910
  20153620.559                          44.600          44.400
 130053296.187 7                  97117739.561 7  24748319.773
                  24748325.590          44.000                          47.100
 128160630.047 7                  95704380.490 8  24388157.664
                  24388162.426          44.900                          48.400
 114421814.417 6                  85444879.882 7  21773745.547
                  21773749.797          38.100                          43.000
 138203381.788 6                 103203850.350 6  26299229.523
                  26299235.664          36.500                          41.500
 120418372.990 7                  89922839.867 8  22914851.406
                  22914856.637          45.700                          49.500
 20  8 16  0 30  9.0000000  0 23R01G17G08G03R18R24G06R17G28G11G19R02
                                G30G01R14G22R16R15E36E02E14E15E30
 123412629.533 4  95987747.717 5                  23086910.969    23086911.230
  23086918.527                          29.500          30.100
 118542044.345 6  92370329.83146                  22557768.641
  22557773.230                          39.600          38.800
 128075963.44715  99799496.76752  95641144.030 6  24372045.734
  24372055.820    24372054.734          30.500          15.600          40.600
 112222341.019 7  87446083.49847  83802498.763 8  21355213.352
  21355221.695    21355222.281          42.400          46.100          50.600
 111284210.447 6  86554305.926 7                  20847255.992    20847255.352
  20847260.617                          40.600          42.600
 124882258.112 4  97130659.054 5                  23353617.477    23353616.465
  23353621.758                          28.200          32.300
 129524546.901 5 100928221.70444  96722878.063 6  24647693.625
  24647701.625    24647702.238          30.500          24.700          39.600
 108201096.475 7  84156299.712 7                  20219932.242    20219931.223
  20219935.586                          43.000          44.200
 109668755.133 7  85456182.67345                  20869263.734
  20869267.973                          44.100          35.600
 118050720.420 6  91987576.97343                  22464303.953
  22464308.633                          37.300          22.200
 125929061.472 5  98126619.10342                  23963517.984
  23963524.594                          31.000          17.800
 117813616.038 6  91632838.181 6                  22078217.633    22078217.359
  22078223.023                          38.400          38.900
 124211632.110 5  96788323.95245  92755475.278 7  23636693.086
  23636701.477    23636702.066          34.100          30.900          44.400
 110500193.540 7  86104120.05545  82516440.723 8  21027497.695
  21027506.246    21027504.660          42.600          34.800          50.400
 123341756.149 5  95932497.072 5                  23138605.609    23138604.539
  23138611.703                          34.200          35.600
 113771191.192 7  88652880.93845                  21649929.250
  21649932.902                          42.900          34.300
 113265629.871 5  88095422.375 5                  21203545.492    21203543.449
  21203547.559                          34.100          35.900
 107697263.632 7  83764447.635 7                  20154047.836    20154047.422
  20154052.285                          44.200          44.500
 130055045.925 7                  97119046.187 7  24748652.859
                  24748658.711          44.600                          46.600
 128162840.211 7                  95706030.949 8  24388578.398
                  24388583.086          44.800                          48.600
 114415938.446 6                  85440492.000 7  21772627.375
                  21772631.797          38.300                          43.200
 138201508.542 6                 103202451.517 6  26298873.398
                  26298879.305          36.900                          41.400
 120417899.487 7                  89922486.287 8  22914761.422
                  22914766.660          45.600                          49.300
 20  8 16  0 30 10.0000000  0 23R01G17G08G03R18R24G06R17G28G11G19R02
                                G30G01R14G22R16R15E36E02E14E15E30
 123413898.064 4  95988734.377 5                  23087147.414    23087148.484
  23087155.867                          29.900          30.300
 118540120.890 6  92368831.03446                  22557401.664
  22557407.332                          39.400          38.800
 128078471.871 5  99801451.39342  95643017.244 6  24372522.695
  24372533.457    24372531.941          30.500          16.300          40.900
 112220717.783 7  87444818.63247  83801286.595 8  21354904.750
  21354912.785    21354913.348          42.400          46.100          50.700
 111282970.331 6  86553341.396 7                  20847023.766    20847023.414
  20847028.391                          40.600          42.600
 124885041.402 4  97132823.837 5                  23354138.898    23354136.676
  23354142.387                          28.100          32.500
 129521469.75215 100925823.93654  96720580.162 6  24647107.539
  24647116.109    24647116.652          30.100          25.300          39.400
 108202293.609 7  84157230.817 7                  20220156.172    20220155.102
  20220159.352                          43.000          43.900
 109667445.077 7  85455161.85145                  20869014.266
  20869018.773                          43.700          35.800
 118053375.075 6  91989645.52543                  22464808.828
  22464813.668                          37.300          22.300
 125926311.018 5  98124475.86642                  23962995.289
  23963001.148                          31.800          17.800
 117810963.792 6  91630775.338 6                  22077721.078    22077720.422
  22077725.879                          38.300          38.900
 124214346.881 5  96790439.37045  92757502.551 7  23637210.609
  23637217.918    23637218.832          34.300          30.400          44.600
 110502488.097 7  86105908.02845  82518154.196 8  21027934.672
  21027942.813    21027941.457          42.600          35.200          50.300
 123346220.074 5  95935968.989 5                  23139443.234    23139442.215
  23139449.105                          34.300          35.500
 113771497.596 7  88653119.69945                  21649988.164
  21649991.375                          43.000          34.500
 113263809.972 5  88094006.897 6                  21203203.477    21203202.672
  21203206.977                          34.300          36.800
 107699570.986 7  83766242.248 7                  20154479.320    20154479.301
  20154484.105                          44.400          44.400
 130056795.681 7                  97120352.818 7  24748985.891
                  24748991.656          43.600                          46.800
 128165050.696 7                  95707681.617 8  24388999.078
                  24389003.680          44.900                          48.900
 114410062.741 6                  85436104.267 7  21771509.258
                  21771513.590          38.000                          43.300
 138199635.410 6                 103201052.715 6  26298516.695
                  26298522.727          36.200                          41.400
 120417426.411 7                  89922133.025 8  22914671.438
                  22914676.508          45.100                          48.900
 20  8 16  0 30 11.0000000  0 23R01G17G08G03R18R24G06R17G28G11G19R02
                                G30G01R14G22R16R15E36E02E14E15E30
 123415167.448 4  95989721.615 5                  23087387.211    23087385.613
  23087393.258                          29.800          30.700
 118538197.504 6  92367332.29546                  22557035.836
  22557041.234                          39.400          38.100
 128080980.475 5  99803406.12642  95644890.527 6  24373000.273
  24373010.719    24373009.777          30.700          16.300          40.800
 112219095.134 7  87443554.23247  83800074.896 8  21354595.875
  21354603.914    21354604.504          42.600          46.000          50.600
 111281730.547 6  86552377.113 7                  20846792.109    20846790.883
  20846796.113                          40.500          42.800
 124887824.706 4  97134988.634 5                  23354658.992    23354656.672
  23354663.027                          27.200          32.000
 129518392.707 5 100923426.24044  96718282.405 6  24646521.578
  24646530.598    24646531.055          30.800          25.400          39.600
 108203490.954 7  84158162.106 7                  20220380.094    20220378.879
  20220383.133                          43.100          44.000
 109666135.524 7  85454141.42046                  20868765.070
  20868769.637                          43.700          36.200
 118056029.874 6  91991714.21243                  22465313.305
  22465318.754                          37.400          22.600
 125923560.520 5  98122332.64142                  23962473.094
  23962477.688                          31.500          17.800
 117808312.099 6  91628712.909 6                  22077224.297    22077223.324
  22077228.859                          37.900          39.200
 124217061.873 5  96792554.95645  92759529.988 7  23637727.664
  23637734.512    23637735.539          34.100          30.500          44.500
 110504783.015 7  86107696.27245  82519867.925 8  21028371.805
  21028379.574    21028378.035          42.600          34.700          50.500
 123350684.027 5  95939440.956 5                  23140281.727    23140279.625
  23140286.492                          34.200          35.800
 113771804.658 7  88653358.96545                  21650047.211
  21650049.828                          42.900          34.400
 113261990.868 5  88092592.049 6                  21202863.133    21202862.141
  21202866.371                          33.900          36.200
 107701879.132 7  83768037.470 7                  20154911.648    20154911.266
  20154916.047                          44.400          44.600
 130058545.526 7                  97121659.521 7  24749318.867
                  24749324.598          43.600                          46.600
 128167261.531 7                  95709332.568 8  24389419.656
                  24389424.305          45.300                          48.800
 114404187.278 6                  85431716.744 7  21770391.289
                  21770395.484          38.400                          43.500
 138197762.434 6                 103199654.089 6  26298160.000
                  26298166.133          36.800                          41.400
 120416953.840 7                  89921780.132 8  22914581.578
                  22914586.500          45.300                          49.200
 20  8 16  0 30 12.0000000  0 23R01G17G08G03R18R24G06R17G28G11G19R02
                                G30G01R14G22R16R15E36E02E14E15E30
 123416437.551 4  95990709.526 5                  23087625.734    23087623.410
  23087630.980                          29.600          30.800
 118536274.208 6  92365833.62046                  22556670.180
  22556675.141                          39.600          38.600
 128083489.161 5  99805360.95142  95646763.890 6  24373477.055
  24373488.230    24373487.043          30.300          15.600          40.700
 112217473.106 7  87442290.32047  83798863.642 8  21354287.367
  21354295.223    21354295.910          43.100          45.900          50.300
 111280491.020 6  86551413.053 7                  20846559.594    20846558.645
  20846563.824                          40.900          43.100
 124890607.913 4  97137153.321 5                  23355179.406    23355177.102
  23355183.500                          27.900          32.500
 129515315.935 5 100921028.75644  96715984.825 6  24645936.664
  24645945.047    24645945.676          30.300          26.400          39.600
 108204688.522 7  84159093.526 7                  20220603.852    20220602.574
  20220606.898                          43.200          44.100
 109664826.422 7  85453121.33746                  20868515.836
  20868520.352                          43.200          36.100
 118058684.793 6  91993782.95443                  22465818.852
  22465823.984                          37.300          21.800
 125920810.077 5  98120189.39443                  23961950.023
  23961954.191                          31.000          19.000
 117805661.001 6  91626650.930 6                  22076727.922    22076726.391
  22076731.984                          37.900          39.200
 124219777.009 5  96794670.63744  92761557.521 7  23638243.992
  23638251.184    23638251.883          33.700          29.700          44.100
 110507078.235 7  86109484.75945  82521581.890 8  21028808.133
  21028816.301    21028814.836          42.300          35.100          50.900
 123355148.085 5  95942913.012 5                  23141119.469    23141117.074
  23141123.875                          33.900          35.000
 113772112.367 7  88653598.74345                  21650105.148
  21650108.457                          43.000          34.500
 113260172.533 5  88091177.785 6                  21202522.867    21202521.488
  21202525.910                          34.200          36.200
 107704188.036 7  83769833.284 7                  20155343.852    20155343.438
  20155348.070                          43.700          44.600
 130060295.412 7                  97122966.253 7  24749651.609
                  24749657.660          43.500                          46.600
 128169472.697 7                  95710983.758 8  24389840.508
                  24389845.184          45.200                          48.600
 114398312.102 6                  85427329.436 7  21769273.633
                  21769277.500          37.800                          43.700
 138195889.639 6                 103198255.551 6  26297803.594
                  26297809.934          37.100                          41.500
 120416481.720 7                  89921427.573 8  22914491.633
                  22914496.801          45.100                          49.400
 20  8 16  0 30 13.0000000  0 23R01G17G08G03R18R24G06R17G28G11G19R02
                                G30G01R14G22R16R15E36E02E14E15E30
 123417708.473 5  95991698.013 5                  23087861.992    23087861.754
  23087868.738                          30.500          30.400
 118534350.939 6  92364334.96546                  22556304.328
  22556309.277                          39.800          38.900
 128085998.015 5  99807315.92842  95648637.342 6  24373955.773
  24373965.594    24373964.668          31.500          14.800          41.100
 112215851.665 7  87441026.85647  83797652.836 8  21353979.289
  21353986.758    21353987.363          43.100          46.000          50.500
 111279251.789 6  86550449.202 7                  20846326.461    20846326.715
  20846331.707                          40.900          43.400
 124893391.114 4  97139318.083 5                  23355697.836    23355697.719
  23355704.004                          28.900          32.600
 129512239.371 5 100918631.44444  96713687.380 6  24645351.781
  24645359.590    24645360.105          30.300          24.700          39.800
 108205886.234 7  84160025.095 7                  20220827.539    20220826.578
  20220830.777                          43.400          43.900
 109663517.786 7  85452101.62746                  20868266.516
  20868271.266                          43.800          36.000
 118061339.913 6  91995851.88843                  22466324.516
  22466329.047                          37.400          22.200
 125918059.667 5  98118046.18543                  23961427.500
  23961430.801                          31.900          18.300
 117803010.387 6  91624589.356 6                  22076230.211    22076229.555
  22076235.152                          37.600          38.600
 124222492.387 5  96796786.51445  92763585.215 7  23638759.695
  23638768.086    23638768.500          33.700          30.500          44.400
 110509373.773 7  86111273.48645  82523296.085 8  21029244.297
  21029253.242    21029251.594          42.400          34.700          51.000
 123359612.296 5  95946385.138 5                  23141956.438    23141954.605
  23141961.176                          34.100          35.600
 113772420.705 7  88653839.00545                  21650163.641
  21650167.180                          43.000          34.400
 113258355.001 5  88089764.128 6                  21202181.047    21202181.500
  21202185.512                          33.900          36.500
 107706497.675 7  83771629.672 7                  20155776.266    20155775.566
  20155780.277                          44.100          44.600
 130062045.381 7                  97124273.036 7  24749984.836
                  24749990.574          43.600                          46.800
 128171684.200 7                  95712635.205 8  24390261.352
                  24390265.918          45.300                          48.500
 114392437.155 6                  85422942.299 7  21768155.492
                  21768159.637          37.900                          43.700
 138194016.996 6                 103196857.158 6  26297447.852
                  26297453.508          37.300                          41.600
 120416010.068 7                  89921075.365 8  22914402.016
                  22914406.910          45.400                          49.100
 20  8 16  0 30 14.0000000  0 23R01G17G08G03R18R24G06R17G28G11G19R02
                                G30G01R14G22R16R15E36E02E14E15E30
 123418980.196 5  95992687.087 5                  23088099.578    23088100.039
  23088106.590                          30.700          30.900
 118532427.738 6  92362836.37246                  22555938.180
  22555943.414                          39.500          38.800
 128088506.830 5  99809270.83642  95650510.863 6  24374433.680
  24374443.020    24374442.152          31.300          15.600          41.300
 112214230.837 7  87439763.87347  83796442.447 8  21353670.531
  21353678.262    21353678.941          43.500          46.000          50.500
 111278012.771 6  86549485.527 7                  20846095.422    20846094.289
  20846099.535                          41.100          42.800
 124896174.248 4  97141482.737 5                  23356219.148    23356217.883
  23356224.402                          27.200          32.900
 129509162.949 5 100916234.23344  96711390.074 6  24644766.102
  24644774.156    24644774.625          30.500          25.700          39.700
 108207084.122 7  84160956.787 7                  20221051.273    20221050.414
  20221054.633                          43.100          43.800
 109662209.573 7  85451082.23546                  20868018.250
  20868022.453                          43.600          36.000
 118063995.096 6  91997920.86243                  22466829.391
  22466834.336                          37.200          22.300
 125915309.233 5  98115903.01443                  23960904.047
  23960907.395                          31.800          18.300
 117800360.248 6  91622528.143 6                  22075733.508    22075733.047
  22075738.578                          37.700          38.900
 124225207.801 5  96798902.41345  92765612.991 7  23639276.031
  23639284.762    23639285.371          33.700          30.400          44.200
 110511669.629 7  86113062.47145  82525010.519 8  21029681.469
  21029690.152    21029688.438          42.300          34.700          50.800
 123364076.513 5  95949857.342 5                  23142793.109    23142791.941
  23142798.773                          33.800          35.600
 113772729.639 7  88654079.73845                  21650222.977
  21650225.918                          42.900          34.300
 113256538.235 5  88088351.092 6                  21201841.984    21201841.902
  21201845.332                          33.900          36.800
 107708808.084 7  83773426.654 7                  20156208.273    20156207.957
  20156212.563                          44.100          44.600
 130063795.340 7                  97125579.848 7  24750318.086
                  24750323.547          44.000                          47.000
 128173896.022 7                  95714286.898 8  24390681.977
                  24390686.773          45.100                          48.500
 114386562.441 6                  85418555.356 7  21767037.883
                  21767041.629          38.600                          43.500
 138192144.474 6                 103195458.851 6  26297091.242
                  26297097.219          37.000                          41.900
 120415538.869 7                  89920723.481 8  22914312.508
                  22914317.332          45.100                          49.100
 20  8 16  0 30 15.0000000  0 23R01G17G08G03R18R24G06R17G28G11G19R02
                                G30G01R14G22R16R15E36E02E14E15E30
 123420252.693 5  95993676.801 5                  23088339.813    23088338.145
  23088344.637                          30.100          30.700
 118530504.618 6  92361337.83146                  22555572.781
  22555577.227                          39.300          39.000
 128091015.816 5  99811225.84542  95652384.469 6  24374910.086
  24374920.332    24374919.633          31.200          16.300          41.100
 112212610.580 7  87438501.33647  83795232.532 8  21353362.156
  21353369.965    21353370.625          43.200          46.200          50.600
 111276774.000 6  86548522.043 7                  20845862.641    20845862.477
  20845867.465                          41.000          42.500
 124898957.360 4  97143647.377 5                  23356739.492    23356738.375
  23356744.848                          28.400          31.400
 129506086.771 5 100913837.21544  96709092.909 6  24644180.875
  24644188.922    24644189.145          30.500          26.800          39.500
 108208282.227 7  84161888.650 7                  20221275.328    20221274.324
  20221278.430                          43.200          44.000
 109660901.874 7  85450063.25046                  20867768.758
  20867773.695                          43.400          36.600
 118066650.461 6  91999989.98243                  22467335.008
  22467339.762                          37.500          23.000
 125912558.888 5  98113759.93842                  23960379.672
  23960383.977                          31.900          17.400
 117797710.647 6  91620467.355 6                  22075237.219    22075236.480
  22075242.055                          36.900          38.600
 124227923.527 5  96801018.56945  92767640.946 7  23639793.750
  23639801.586    23639802.359          32.500          30.600          44.100
 110513965.814 7  86114851.70745  82526725.196 8  21030118.586
  21030127.020    21030125.488          42.300          34.600          50.700
 123368540.840 5  95953329.599 5                  23143630.836    23143629.289
  23143636.223                          34.100          35.800
 113773039.238 7  88654320.98145                  21650281.156
  21650284.629                          42.600          34.200
 113254722.288 5  88086938.679 6                  21201502.570    21201501.563
  21201505.363                          33.900          36.400
 107711119.277 7  83775224.252 7                  20156640.906    20156640.387
  20156645.094                          44.300          44.700
 130065545.412 7                  97126886.719 7  24750650.820
                  24750656.566          44.200                          46.500
 128176108.201 7                  95715938.849 8  24391103.016
                  24391107.828          45.500                          48.500
 114380687.994 6                  85414168.597 7  21765919.789
                  21765923.613          38.500                          43.600
 138190272.149 6                 103194060.676 7  26296734.984
                  26296740.934          37.300                          42.000
 120415068.135 7                  89920371.971 8  22914222.758
                  22914227.680          45.200                          49.000
 20  8 16  0 30 16.0000000  0 23R01G17G08G03R18R24G06R17G28G11G19R02
                                G30G01R14G22R16R15E36E02E14E15E30
 123421525.932 5  95994667.129 5                  23088578.156    23088576.543
  23088582.805                          30.300          32.400
 118528581.523 6  92359839.32546                  22555206.406
  22555211.488                          39.600          38.500
 128093524.961 4  99813181.06142  95654258.145 6  24375387.555
  24375397.594    24375397.070          29.400          14.800          40.900
 112210990.961 7  87437239.29747  83794023.065 8  21353054.281
  21353061.852    21353062.320          43.200          46.100          50.900
 111275535.459 6  86547558.738 7                  20845631.703    20845630.215
  20845635.566                          41.200          42.100
 124901740.511 4  97145811.984 5                  23357259.727    23357258.875
  23357265.387                          28.100          31.600
 129503010.673 5 100911440.24844  96706795.849 6  24643594.859
  24643603.582    24643603.980          30.800          25.800          39.400
 108209480.541 7  84162820.668 7                  20221499.133    20221498.270
  20221502.488                          43.000          44.200
 109659594.616 7  85449044.60845                  20867520.141
  20867524.855                          43.600          35.900
 118069305.948 6  92002059.20743                  22467840.016
  22467844.965                          37.200          21.800
 125909808.52415  98111616.78152                  23959856.758
  23959860.637                          32.200          16.900
 117795061.617 6  91618406.981 6                  22074742.492    22074740.031
  22074745.676                          36.900          39.000
 124230639.366 5  96803134.79945  92769668.992 7  23640310.344
  23640318.191    23640319.082          33.700          30.200          44.300
 110516262.296 7  86116641.16645  82528440.112 8  21030555.211
  21030564.113    21030562.477          42.200          35.000          50.800
 123373005.264 5  95956801.880 6                  23144467.930    23144466.797
  23144473.629                          33.800          36.200
 113773349.455 7  88654562.71545                  21650340.641
  21650343.641                          42.700          34.100
 113252907.125 5  88085526.901 6                  21201163.375    21201161.492
  21201165.574                          34.600          36.500
 107713431.193 7  83777022.410 7                  20157073.398    20157073.117
  20157077.805                          44.100          44.600
 130067295.522 7                  97128193.621 7  24750983.969
                  24750989.586          44.400                          46.800
 128178320.701 7                  95717591.053 8  24391524.234
                  24391528.773          45.300                          48.300
 114374813.818 6                  85409782.037 7  21764802.008
                  21764806.082          38.700                          43.700
 138188399.957 6                 103192662.599 6  26296378.438
                  26296384.715          37.500                          41.900
 120414597.873 7                  89920020.794 8  22914133.578
                  22914138.199          45.300                          49.300
 20  8 16  0 30 17.0000000  0 23R01G17G08G03R18R24G06R17G28G11G19R02
                                G30G01R14G22R16R15E36E02E14E15E30
 123422799.997 4  95995658.062 5                  23088816.086    23088814.453
  23088821.328                          29.500          30.700
 118526658.502 6  92358340.86046                  22554841.242
  22554845.445                          39.800          38.700
 128096034.129 5  99815136.28042  95656131.905 6  24375864.664
  24375875.066    24375874.391          30.500          15.600          40.900
 112209371.892 7  87435977.68547  83792814.029 8  21352746.047
  21352753.594    21352754.277          43.400          46.100          50.700
 111274297.205 6  86546595.635 7                  20845399.094    20845398.195
  20845403.484                          40.800          42.300
 124904523.459 4  97147976.557 5                  23357781.172    23357779.430
  23357785.766                          27.900          32.000
 129499934.898 5 100909043.53244  96704498.953 6  24643010.055
  24643018.230    24643018.672          30.500          25.300          40.200
 108210679.038 7  84163752.836 7                  20221722.453    20221722.375
  20221726.441                          43.400          44.400
 109658287.799 7  85448026.30946                  20867271.508
  20867276.141                          43.800          36.300
 118071961.604 6  92004128.50343                  22468344.766
  22468350.262                          37.200          21.100
 125907058.198 5  98109473.66542                  23959334.281
  23959336.977                          32.300          17.800
 117792413.122 6  91616347.026 6                  22074244.445    22074243.738
