     2.11           OBSERVATION DATA    M (MIXED)           RINEX VERSION / TYPE
teqc  2016Nov7      KASI/KOREA          20200706 00:17:51UTCPGM / RUN BY / DATE
Linux 2.4.20-8|Pentium IV|gcc|Linux|486/DX+                 COMMENT
  0.0000      (antenna height)                              COMMENT
 +36.39942714 (latitude)                                    COMMENT
+127.37448264 (longitude)                                   COMMENT
0116.859      (elevation)                                   COMMENT
BIT 2 OF LLI FLAGS DATA COLLECTED UNDER A/S CONDITION       COMMENT
23902M002 (COGO code)                                       COMMENT
DAEJ                                                        MARKER NAME
23902M002                                                   MARKER NUMBER
KASI GPS            KASI/KOREA                              OBSERVER / AGENCY
5412K48145          TRIMBLE NETR9       5.44                REC # / TYPE / VERS
4923363230          TRM59800.00     SCIS                    ANT # / TYPE
 -3120042.2018  4084615.1423  3764027.3215                  APPROX POSITION XYZ
        0.0000        0.0000        0.0000                  ANTENNA: DELTA H/E/N
     1     1                                                WAVELENGTH FACT L1/2
    10    L1    L2    L5    C1    P1    P2    C5    S1    S2# / TYPES OF OBSERV
          S5                                                # / TYPES OF OBSERV
    18                                                      LEAP SECONDS
 SNR is mapped to RINEX snr flag value [0-9]                COMMENT
  L1 & L2: min(max(int(snr_dBHz/6), 0), 9)                  COMMENT
  2020     7     6     0     0    0.0000000     GPS         TIME OF FIRST OBS
                                                            END OF HEADER
 20  7  6  0  0  0.0000000  0 19G08G27R11R24G30G09R23R13G07R12G11G01
                                G21G16E27E14E13E30E15
 107023067.500 7  83394646.38948  79919864.705 8  20365816.781
  20365824.203    20365823.516          45.600          50.700          52.800
 113233201.721 6  88233702.37047  84557293.728 8  21547563.852
  21547571.141    21547570.543          41.700          44.800          49.300
 122816309.995 6  95523798.299 5                  22983399.383    22983398.594
  22983402.520                          36.000          35.600
 121504700.269 6  94503676.717 6                  22721990.016    22721990.059
  22721994.797                          36.700          36.200
 125767843.387 5  98000936.54944  93917559.647 7  23932817.117
  23932826.164    23932825.879          33.700          28.600          42.400
 128930447.426 5 100465287.43844  96279238.038 6  24534649.047
  24534659.211    24534659.953          32.600          26.400          40.900
 105678276.552 7  82194251.534 6                  19755436.867    19755436.305
  19755444.227                          45.400          40.000
 107949278.636 5  83960577.752 6                  20215437.078    20215434.184
  20215439.773                          32.600          40.200
 114153784.984 6  88950966.77347                  21722727.688
  21722733.195                          41.400          43.300
 104607068.450 7  81361100.841 7                  19582667.531    19582666.563
  19582671.266                          46.100          46.600
 109491946.807 7  85318371.10846                  20835608.883
  20835613.965                          44.100          36.200
 120469521.643 5  93872427.28645  89961075.638 7  22924595.617
  22924605.789    22924604.020          35.800          34.900          45.100
 127298705.682 5  99193824.97242                  24224139.602
  24224145.004                          33.500          16.900
 117815201.510 6  91804097.38044                  22419493.484
  22419498.758                          39.600          27.000
 123600293.157 7                  92298942.080 8  23520351.125
                  23520356.293          47.200                          50.600
 129997380.343 6                  97075993.565 7  24737678.617
                  24737683.453          38.500                          42.600
 134211754.702 6                 100223086.753 7  25539646.852
                  25539652.406          40.400                          44.500
 123429539.487 7                  92171426.071 8  23487861.328
                  23487867.012          44.800                          48.300
 121508408.339 7                  90736825.873 8  23122279.281
                  23122285.707          46.500                          51.100
 20  7  6  0  0  1.0000000  0 19G08G27R11R24G30G09R23R13G07R12G11G01
                                G21G16E27E14E13E30E15
 107023629.929 7  83395084.65148  79920284.712 8  20365923.875
  20365931.285    20365930.574          46.000          50.800          52.700
 113235545.530 7  88235528.71147  84559043.968 8  21548009.258
  21548017.207    21548016.594          42.000          44.600          49.400
 122819909.708 5  95526598.087 5                  22984073.016    22984072.164
  22984076.316                          35.600          35.300
 121500827.205 6  94500664.340 6                  22721266.617    22721265.852
  22721270.523                          36.800          36.700
 125764688.567 5  97998478.25544  93915203.821 7  23932217.766
  23932225.570    23932225.918          33.100          28.000          42.700
 128932876.317 5 100467180.07044  96281051.840 6  24535111.828
  24535121.145    24535122.078          33.000          27.200          40.800
 105676246.897 7  82192672.920 6                  19755057.742    19755056.910
  19755064.734                          45.100          40.000
 107946676.451 5  83958553.843 6                  20214948.727    20214946.184
  20214952.348                          33.000          40.200
 114151842.364 6  88949453.04147                  21722358.516
  21722363.383                          41.200          43.500
 104608219.387 7  81361996.006 7                  19582882.836    19582881.977
  19582886.832                          45.400          46.900
 109489873.704 7  85316755.70746                  20835214.219
  20835219.293                          43.800          36.000
 120465725.259 5  93869469.07545  89958240.668 7  22923873.156
  22923883.277    22923881.656          35.500          35.000          45.400
 127301554.797 5  99196045.04742                  24224681.813
  24224686.926                          33.900          17.400
 117817326.116 6  91805752.91644                  22419897.555
  22419902.926                          39.000          26.400
 123599358.250 7                  92298243.924 8  23520173.516
                  23520178.402          46.800                          50.600
 129991604.874 6                  97071680.718 7  24736579.797
                  24736584.582          38.400                          43.000
 134209024.182 6                 100221047.720 7  25539127.297
                  25539132.711          40.700                          44.300
 123430938.058 7                  92172470.460 8  23488127.422
                  23488133.246          44.800                          48.200
 121507961.664 7                  90736492.310 8  23122194.359
                  23122200.805          47.000                          51.300
 20  7  6  0  0  2.0000000  0 19G08G27R11R24G30G09R23R13G07R12G11G01
                                G21G16E27E14E13E30E15
 107024192.760 7  83395523.21448  79920704.997 8  20366030.836
  20366038.418    20366037.676          46.300          50.900          53.200
 113237889.534 7  88237355.20647  84560794.353 8  21548455.719
  21548463.164    21548462.531          42.300          44.700          49.300
 122823509.824 6  95529398.147 5                  22984745.789    22984745.902
  22984749.969                          36.200          35.300
 121496954.503 6  94497652.226 6                  22720542.289    22720541.309
  22720546.281                          36.800          36.100
 125761534.050 5  97996020.19344  93912848.150 7  23931617.648
  23931625.227    23931625.414          33.200          27.800          42.500
 128935305.374 5 100469072.85744  96282865.723 6  24535574.313
  24535583.516    24535584.391          33.200          26.800          40.900
 105674217.990 7  82191094.868 6                  19754678.734    19754677.539
  19754685.492                          45.300          40.100
 107944074.747 5  83956530.269 6                  20214462.336    20214459.043
  20214465.172                          33.200          40.900
 114149900.254 6  88947939.70647                  21721988.539
  21721993.777                          41.600          43.600
 104609370.982 7  81362891.701 7                  19583098.195    19583097.629
  19583102.340                          45.500          47.100
 109487801.086 7  85315140.68046                  20834820.000
  20834825.008                          44.100          36.000
 120461929.063 5  93866511.00145  89955405.876 7  22923151.180
  22923161.012    22923159.426          35.400          35.100          45.300
 127304404.162 5  99198265.33242                  24225224.930
  24225229.262                          33.700          16.900
 117819450.953 6  91807408.62344                  22420301.531
  22420307.395                          39.400          26.700
 123598423.552 7                  92297545.944 8  23519995.430
                  23520000.434          47.000                          50.900
 129985829.338 6                  97067367.828 7  24735480.656
                  24735485.586          38.800                          43.000
 134206293.872 6                 100219008.850 7  25538607.945
                  25538613.297          40.900                          44.500
 123432336.899 7                  92173515.048 8  23488393.578
                  23488399.352          44.600                          48.100
 121507515.440 7                  90736159.094 8  23122109.578
                  23122115.762          46.700                          51.200
 20  7  6  0  0  3.0000000  0 19G08G27R11R24G30G09R23R13G07R12G11G01
                                G21G16E27E14E13E30E15
 107024755.983 7  83395962.09048  79921125.580 8  20366138.008
  20366145.422    20366144.898          46.400          50.900          52.900
 113240233.749 7  88239181.86347  84562544.907 8  21548902.086
  21548909.402    21548908.707          42.400          44.600          49.300
 122827110.223 6  95532198.462 5                  22985419.625    22985419.832
  22985423.711                          36.500          35.300
 121493082.041 6  94494640.346 5                  22719817.344    22719817.176
  22719821.984                          36.800          35.600
 125758379.796 5  97993562.33044  93910492.705 7  23931017.383
  23931024.887    23931025.223          33.500          27.900          42.600
 128937734.547 5 100470965.72144  96284679.734 6  24536036.945
  24536045.785    24536046.742          33.100          27.400          41.000
 105672189.784 7  82189517.388 6                  19754299.430    19754298.621
  19754306.344                          45.300          40.000
 107941473.444 5  83954507.056 6                  20213973.727    20213971.805
  20213978.125                          32.200          40.500
 114147958.702 6  88946426.81247                  21721619.406
  21721624.367                          41.700          43.400
 104610523.237 7  81363787.889 7                  19583313.516    19583313.395
  19583317.992                          45.300          46.600
 109485728.963 7  85313526.04146                  20834425.719
  20834430.672                          43.800          36.200
 120458133.200 6  93863553.18145  89952571.252 7  22922428.586
  22922438.543    22922436.992          36.100          34.900          45.500
 127307253.832 5  99200485.89442                  24225766.414
  24225771.543                          33.700          17.400
 117821575.969 6  91809064.48844                  22420706.586
  22420711.746                          39.500          26.400
 123597489.070 7                  92296848.111 8  23519817.781
                  23519822.563          47.100                          50.900
 129980053.802 6                  97063054.937 7  24734381.391
                  24734386.324          38.800                          42.900
 134203563.810 6                 100216970.178 7  25538088.414
                  25538093.641          40.900                          44.400
 123433735.967 7                  92174559.810 8  23488659.813
                  23488665.641          44.800                          48.100
 121507069.690 7                  90735826.232 8  23122024.633
                  23122030.953          46.400                          50.900
 20  7  6  0  0  4.0000000  0 19G08G27R11R24G30G09R23R13G07R12G11G01
                                G21G16E27E14E13E30E15
 107025319.517 7  83396401.20748  79921546.405 8  20366245.078
  20366252.766    20366252.102          46.300          50.800          53.000
 113242578.142 7  88241008.66647  84564295.595 8  21549347.703
  21549355.379    21549354.832          42.000          44.700          49.400
 122830710.869 6  95534998.977 5                  22986093.258    22986093.586
  22986097.539                          36.000          35.300
 121489209.985 6  94491628.723 6                  22719092.719    22719093.531
  22719097.910                          37.100          36.400
 125755225.799 5  97991104.67144  93908137.450 7  23930416.758
  23930424.879    23930425.047          32.900          28.300          42.500
 128940163.874 5 100472858.68844  96286493.822 6  24536498.633
  24536508.105    24536508.953          33.100          25.700          40.900
 105670162.254 7  82187940.417 6                  19753920.523    19753919.711
  19753927.301                          45.200          40.400
 107938872.550 5  83952484.152 6                  20213486.109    20213484.426
  20213491.059                          32.800          40.900
 114146017.601 6  88944914.26247                  21721249.461
  21721255.074                          41.600          43.400
 104611676.071 7  81364684.542 7                  19583529.820    19583529.293
  19583533.859                          45.600          46.600
 109483657.308 7  85311911.76446                  20834031.547
  20834036.605                          43.700          36.100
 120454337.409 6  93860595.42745  89949736.759 7  22921706.891
  22921716.242    22921714.734          36.300          34.800          45.600
 127310103.682 5  99202706.55342                  24226308.336
  24226313.852                          33.300          17.400
 117823701.219 6  91810720.52444                  22421110.680
  22421116.215                          39.400          25.900
 123596554.779 7                  92296150.426 8  23519639.945
                  23519644.883          47.400                          51.200
 129974278.177 6                  97058741.965 7  24733282.469
                  24733287.441          38.300                          42.800
 134200833.971 6                 100214931.634 7  25537568.953
                  25537574.434          40.900                          44.400
 123435135.271 7                  92175604.747 8  23488926.242
                  23488931.855          44.400                          48.300
 121506624.363 7                  90735493.681 8  23121939.930
                  23121946.207          46.500                          50.900
 20  7  6  0  0  5.0000000  0 19G08G27R11R24G30G09R23R13G07R12G11G01
                                G21G16E27E14E13E30E15
 107025883.455 7  83396840.63948  79921967.522 8  20366352.836
  20366360.113    20366359.477          46.000          50.800          52.900
 113244922.781 7  88242835.66247  84566046.453 8  21549794.234
  21549801.586    21549800.965          42.000          44.700          49.300
 122834311.856 6  95537799.769 5                  22986768.078    22986767.832
  22986771.340                          36.000          35.100
 121485338.233 6  94488617.365 5                  22718369.172    22718369.449
  22718373.953                          36.700          35.800
 125752072.087 5  97988647.23744  93905782.395 7  23929816.313
  23929824.809    23929825.211          33.500          28.500          42.400
 128942593.323 5 100474751.76444  96288308.036 6  24536961.500
  24536970.375    24536971.090          33.500          26.300          41.000
 105668135.464 7  82186364.016 6                  19753541.680    19753540.688
  19753548.547                          45.700          40.500
 107936272.097 5  83950461.579 6                  20212998.211    20212998.168
  20213004.004                          32.400          40.400
 114144077.063 6  88943402.16347                  21720880.047
  21720885.898                          41.600          43.200
 104612829.615 7  81365581.749 7                  19583746.313    19583745.258
  19583749.820                          45.700          46.100
 109481586.175 7  85310297.89645                  20833637.305
  20833642.344                          42.900          35.900
 120450541.895 5  93857637.87545  89946902.439 7  22920984.242
  22920993.820    22920992.594          35.900          35.000          45.700
 127312953.851 5  99204927.44543                  24226851.141
  24226856.316                          33.300          18.300
 117825826.621 6  91812376.67744                  22421514.820
  22421520.664                          39.400          25.600
 123595620.727 7                  92295452.912 8  23519462.250
                  23519467.203          47.100                          50.700
 129968502.527 6                  97054428.964 7  24732183.164
                  24732188.375          38.300                          42.800
 134198104.339 6                 100212893.297 7  25537049.320
                  25537054.859          40.900                          44.700
 123436534.831 7                  92176649.873 8  23489192.375
                  23489198.152          44.700                          48.300
 121506179.504 7                  90735161.490 8  23121855.352
                  23121861.547          45.900                          51.300
 20  7  6  0  0  6.0000000  0 19G08G27R11R24G30G09R23R13G07R12G11G01
                                G21G16E27E14E13E30E15
 107026447.759 7  83397280.35948  79922388.927 8  20366459.828
  20366467.430    20366466.891          45.800          50.800          52.600
 113247267.603 7  88244662.79247  84567797.465 8  21550240.586
  21550247.793    21550247.281          42.400          44.600          49.300
 122837913.223 6  95540600.812 5                  22987442.266    22987441.559
  22987445.441                          36.200          34.900
 121481466.802 6  94485606.261 6                  22717644.969    22717645.520
  22717650.027                          36.500          36.000
 125748918.621 5  97986189.98444  93903427.564 7  23929217.039
  23929224.750    23929224.809          33.600          27.700          42.400
 128945022.985 5 100476645.01344  96290122.369 6  24537423.938
  24537432.691    24537433.547          33.100          27.200          41.100
 105666109.369 7  82184788.164 6                  19753162.469    19753162.172
  19753169.609                          45.400          40.500
 107933672.063 5  83948439.317 6                  20212512.727    20212511.188
  20212517.074                          32.700          40.200
 114142137.067 6  88941890.47747                  21720511.211
  21720516.648                          41.800          43.300
 104613983.867 7  81366479.482 7                  19583961.813    19583961.316
  19583965.832                          45.700          46.400
 109479515.537 7  85308684.41646                  20833243.445
  20833248.430                          43.000          36.100
 120446746.571 6  93854680.48445  89944068.276 7  22920261.641
  22920271.719    22920270.207          36.000          35.400          45.500
 127315804.297 5  99207148.60443                  24227393.203
  24227398.625                          33.600          18.600
 117827952.259 6  91814033.01344                  22421919.875
  22421925.160                          39.200          27.500
 123594686.860 7                  92294755.555 8  23519284.500
                  23519289.367          46.900                          50.900
 129962726.830 6                  97050115.942 7  24731084.242
                  24731089.500          38.500                          43.000
 134195374.965 6                 100210855.123 7  25536530.328
                  25536535.434          40.900                          44.800
 123437934.658 7                  92177695.207 8  23489458.789
                  23489464.441          44.300                          48.300
 121505735.111 7                  90734829.635 8  23121770.930
                  23121777.000          46.000                          51.400
 20  7  6  0  0  7.0000000  0 19G08G27R11R24G30G09R23R13G07R12G11G01
                                G21G16E27E14E13E30E15
 107027012.439 7  83397720.36648  79922810.605 8  20366567.188
  20366574.984    20366574.293          45.800          50.800          52.700
 113249612.642 6  88246490.10347  84569548.624 8  21550686.703
  21550694.109    21550693.480          41.600          44.600          49.600
 122841514.875 5  95543402.098 5                  22988114.898    22988115.422
  22988119.469                          35.900          35.200
 121477595.705 6  94482595.407 6                  22716921.016    22716921.469
  22716926.223                          37.100          36.100
 125745765.503 5  97983733.00544  93901072.954 7  23928616.922
  23928624.797    23928625.051          33.600          28.600          42.700
 128947452.731 5 100478538.30444  96291936.798 6  24537886.563
  24537894.914    24537895.871          33.300          27.400          41.000
 105664083.995 7  82183212.883 6                  19752783.977    19752783.180
  19752790.867                          45.800          40.300
 107931072.525 5  83946417.416 6                  20212026.617    20212024.137
  20212030.145                          32.400          40.300
 114140197.568 6  88940379.17047                  21720142.094
  21720147.414                          41.600          43.700
 104615138.795 7  81367377.769 7                  19584178.695    19584177.297
  19584182.082                          45.600          46.400
 109477445.386 7  85307071.30446                  20832849.227
  20832854.352                          43.000          36.000
 120442951.504 6  93851723.29445  89941234.288 7  22919540.109
  22919549.656    22919547.957          36.200          35.400          45.600
 127318654.951 5  99209369.85143                  24227936.328
  24227941.090                          34.200          18.600
 117830078.099 6  91815689.52744                  22422324.078
  22422329.648                          39.100          26.400
 123593753.225 7                  92294058.361 8  23519107.039
                  23519111.746          46.800                          51.100
 129956951.055 6                  97045802.877 7  24729985.305
                  24729990.176          38.100                          43.000
 134192645.823 6                 100208817.120 7  25536010.852
                  25536016.047          41.200                          44.700
 123439334.732 7                  92178740.706 8  23489725.156
                  23489731.000          44.400                          48.300
 121505291.174 7                  90734498.129 8  23121686.602
                  23121692.527          46.600                          51.200
 20  7  6  0  0  8.0000000  0 19G08G27R11R24G30G09R23R13G07R12G11G01
                                G21G16E27E14E13E30E15
 107027577.450 7  83398160.63448  79923232.514 8  20366675.133
  20366682.477    20366681.813          45.900          50.800          52.500
 113251957.828 6  88248317.52047  84571299.902 8  21551132.813
  21551140.391    21551139.664          41.000          44.500          49.500
 122845116.810 6  95546203.569 5                  22988789.820    22988789.465
  22988793.539                          36.000          35.500
 121473724.889 6  94479584.742 5                  22716198.219    22716197.602
  22716202.289                          37.000          35.800
 125742612.539 5  97981276.14944  93898718.467 7  23928016.391
  23928024.797    23928025.172          33.300          28.300          43.000
 128949882.563 5 100480431.68744  96293751.282 6  24538348.320
  24538357.242    24538358.426          33.000          27.100          41.000
 105662059.296 7  82181638.104 6                  19752405.906    19752404.961
  19752412.473                          46.300          40.100
 107928473.254 5  83944395.804 6                  20211539.031    20211537.730
  20211543.316                          32.700          40.400
 114138258.548 6  88938868.24847                  21719773.367
  21719778.531                          40.900          43.400
 104616294.312 7  81368276.504 7                  19584394.875    19584393.750
  19584398.313                          45.700          46.400
 109475375.691 7  85305458.56346                  20832455.828
  20832460.551                          43.400          36.200
 120439156.615 5  93848766.22645  89938400.408 7  22918818.258
  22918827.539    22918825.777          35.600          34.900          45.600
 127321505.854 5  99211591.33343                  24228478.258
  24228483.676                          33.400          18.300
 117832204.135 6  91817346.16644                  22422728.211
  22422734.207                          38.900          25.500
 123592819.738 7                  92293361.277 8  23518929.273
                  23518934.188          46.800                          50.900
 129951175.204 6                  97041489.725 7  24728886.031
                  24728891.320          38.800                          43.300
 134189916.834 6                 100206779.259 7  25535491.531
                  25535496.957          40.900                          44.700
 123440734.990 7                  92179786.352 8  23489991.477
                  23489997.578          44.100                          48.200
 121504847.654 7                  90734166.915 8  23121602.008
                  23121608.113          46.300                          51.500
 20  7  6  0  0  9.0000000  0 19G08G27R11R24G30G09R23R13G07R12G11G01
                                G21G16E27E14E13E30E15
 107028142.884 7  83398601.23348  79923654.773 8  20366782.570
  20366790.031    20366789.480          46.000          50.800          52.700
 113254303.308 6  88250145.15647  84573051.396 8  21551579.313
  21551586.629    21551586.125          41.600          44.600          49.600
 122848719.059 6  95549005.329 5                  22989464.516    22989463.898
  22989467.789                          36.300          35.600
 121469854.444 6  94476574.398 5                  22715474.063    22715473.715
  22715478.359                          37.200          35.700
 125739460.021 5  97978819.65444  93896364.283 7  23927416.352
  23927424.766    23927424.895          33.100          28.100          43.100
 128952312.676 5 100482325.26944  96295565.980 6  24538810.242
  24538819.547    24538820.695          32.500          27.200          40.900
 105660035.354 7  82180063.944 6                  19752026.773    19752026.258
  19752034.176                          46.400          40.200
 107925874.519 5  83942374.569 6                  20211053.719    20211050.930
  20211056.703                          32.600          40.800
 114136320.132 6  88937357.79147                  21719404.133
  21719409.609                          40.700          43.300
 104617450.573 7  81369175.817 7                  19584611.000    19584610.063
  19584614.813                          45.600          46.100
 109473306.534 7  85303846.22846                  20832062.305
  20832066.676                          43.300          36.200
 120435361.937 6  93845809.34245  89935566.764 7  22918095.523
  22918105.477    22918103.719          36.000          34.800          45.400
 127324357.071 5  99213813.06543                  24229020.750
  24229026.441                          33.700          18.300
 117834330.426 6  91819003.01844                  22423133.742
  22423138.770                          38.900          26.500
 123591886.538 7                  92292664.407 8  23518751.695
                  23518756.480          47.100                          50.800
 129945399.356 6                  97037176.619 7  24727787.016
                  24727791.969          38.900                          43.100
 134187188.191 6                 100204741.607 7  25534972.383
                  25534977.695          40.700                          44.800
 123442135.577 7                  92180832.263 8  23490258.484
                  23490264.113          44.700                          48.100
 121504404.650 7                  90733836.106 8  23121517.398
                  23121523.836          46.600                          51.400
 20  7  6  0  0 10.0000000  0 19G08G27R11R24G30G09R23R13G07R12G11G01
                                G21G16E27E14E13E30E15
 107028708.659 7  83399042.09748  79924077.254 8  20366889.859
  20366897.758    20366897.074          44.800          50.300          52.500
 113256648.946 6  88251972.93047  84574803.000 8  21552025.609
  21552032.988    21552032.426          41.100          44.100          49.900
 122852321.616 5  95551807.340 5                  22990139.141    22990138.691
  22990142.082                          35.500          35.000
 121465984.306 6  94473564.290 5                  22714750.406    22714750.227
  22714754.785                          36.800          35.700
 125736308.11515  97976363.73954  93894010.259 7  23926816.742
  23926825.035    23926825.199          32.500          27.200          43.000
 128954742.822 5 100484218.88544  96297380.722 6  24539272.547
  24539281.969    24539282.859          31.300          26.200          40.700
 105658012.085 7  82178490.293 6                  19751648.570    19751648.348
  19751656.008                          46.600          40.200
 107923276.191 5  83940353.638 6                  20210564.836    20210564.129
  20210570.117                          32.800          40.700
 114134382.209 6  88935847.72547                  21719034.930
  21719040.895                          40.800          42.800
 104618607.458 7  81370075.618 7                  19584827.438    19584826.828
  19584831.547                          45.300          46.600
 109471237.871 7  85302234.28545                  20831668.188
  20831673.066                          42.900          35.800
 120431567.486 5  93842852.62845  89932733.237 7  22917373.359
  22917383.336    22917381.574          35.200          34.000          45.500
 127327208.531 5  99216034.99842                  24229563.258
  24229569.215                          32.500          17.800
 117836456.888 6  91820659.99544                  22423537.828
  22423543.547                          38.000          25.900
 123590953.513 7                  92291967.667 8  23518573.938
                  23518579.004          47.300                          50.700
 129939623.449 6                  97032863.432 7  24726687.711
                  24726692.824          38.700                          42.600
 134184459.702 6                 100202704.107 7  25534453.008
                  25534458.352          40.200                          44.800
 123443536.377 7                  92181878.292 7  23490524.883
                  23490530.520          44.600                          47.800
 121503962.073 7                  90733505.608 8  23121433.219
                  23121439.566          46.300                          51.500
 20  7  6  0  0 11.0000000  0 19G08G27R11R24G30G09R23R13G07R12G11G01
                                G21G16E27E14E13E30E15
 107029274.803 7  83399483.25048  79924500.034 8  20366997.250
  20367005.656    20367004.801          43.500          50.000          52.400
 113258994.805 6  88253800.87147  84576554.776 8  21552471.836
  21552479.289    21552478.777          40.400          43.800          49.500
 122855924.502 5  95554609.576 5                  22990812.430    22990812.473
  22990816.316                          35.600          35.400
 121462114.432 6  94470554.432 6                  22714025.805    22714026.551
  22714031.035                          36.400          36.100
 125733156.06515  97973907.59254  93891656.445 7  23926218.133
  23926225.273    23926225.563          31.200          26.300          42.500
 128957173.153 5 100486112.64544  96299195.543 6  24539735.844
  24539744.398    24539745.563          30.800          26.000          41.300
 105655989.535 7  82176917.198 6                  19751271.438    19751270.090
  19751277.824                          45.900          40.300
 107920678.224 5  83938333.058 6                  20210080.289    20210077.313
  20210083.684                          32.200          41.000
 114132444.778 6  88934338.03947                  21718666.680
  21718672.164                          40.200          42.700
 104619765.011 7  81370975.938 7                  19585044.250    19585043.543
  19585048.152                          44.900          46.700
 109469169.667 7  85300622.69845                  20831274.547
  20831279.441                          42.300          35.500
 120427773.229 5  93839896.07045  89929899.886 7  22916651.836
  22916661.246    22916659.520          34.000          33.700          45.400
 127330060.243 5  99218257.12542                  24230106.648
  24230111.871                          31.600          16.900
 117838583.486 6  91822317.08344                  22423943.047
  22423948.133                          37.900          25.800
 123590020.688 7                  92291271.089 8  23518396.656
                  23518401.559          46.700                          50.800
 129933847.486 6                  97028550.198 7  24725588.523
                  24725593.770          38.300                          42.700
 134181731.466 6                 100200666.796 7  25533933.789
                  25533939.336          39.800                          44.800
 123444937.426 7                  92182924.523 7  23490791.445
                  23490797.180          44.500                          47.900
 121503519.949 7                  90733175.451 8  23121349.070
                  23121355.379          46.000                          51.300
 20  7  6  0  0 12.0000000  0 19G08G27R11R24G30G09R23R13G07R12G11G01
                                G21G16E27E14E13E30E15
 107029841.350 7  83399924.71348  79924923.085 8  20367105.633
  20367113.363    20367112.664          43.200          49.800          52.400
 113261340.864 6  88255628.96247  84578306.705 8  21552918.305
  21552925.754    21552925.191          39.700          43.600          49.200
 122859527.681 5  95557412.069 5                  22991486.406    22991486.871
  22991490.594                          35.700          35.600
 121458244.958 6  94467544.815 6                  22713303.133    22713302.805
  22713307.398                          36.600          36.200
 125730004.30215  97971451.67954  93889302.832 7  23925618.227
  23925625.664    23925625.797          30.800          27.400          42.700
 128959604.05515 100488006.95254  96301010.529 6  24540198.805
  24540206.973    24540208.133          30.500          26.500          41.400
 105653967.710 7  82175344.676 6                  19750892.844    19750892.371
  19750899.813                          45.100          40.600
 107918080.825 5  83936312.800 6                  20209593.961    20209591.039
  20209597.285                          32.000          40.900
 114130507.931 6  88932828.80647                  21718298.477
  21718303.508                          40.100          42.400
 104620923.212 7  81371876.768 7                  19585260.289    19585260.309
  19585264.918                          45.000          46.800
 109467101.986 7  85299011.51045                  20830881.086
  20830886.164                          42.100          35.300
 120423979.210 5  93836939.69345  89927066.683 7  22915929.055
  22915939.301    22915937.586          33.600          33.300          45.500
 127332912.69115  99220479.88152                  24230649.430
  24230654.563                          32.400          17.800
 117840710.366 6  91823974.39144                  22424347.727
  22424352.781                          37.500          24.700
 123589088.101 7                  92290574.664 8  23518219.094
                  23518224.129          45.900                          51.000
 129928071.481 6                  97024236.951 7  24724489.727
                  24724494.727          38.400                          42.800
 134179003.475 6                 100198629.646 7  25533414.344
                  25533420.211          40.200                          44.900
 123446338.736 7                  92183970.961 8  23491058.305
                  23491063.813          44.000                          48.000
 121503078.271 7                  90732845.635 8  23121265.008
                  23121271.480          45.500                          51.000
 20  7  6  0  0 13.0000000  0 19G08G27R11R24G30G09R23R13G07R12G11G01
                                G21G16E27E14E13E30E15
 107030408.192 7  83400366.40848  79925346.392 8  20367213.203
  20367221.180    20367220.520          43.100          50.300          52.400
 113263687.100 6  88257457.20447  84580058.777 8  21553364.523
  21553372.348    21553371.805          40.200          43.900          49.500
 122863131.225 5  95560214.796 5                  22992162.164    22992161.215
  22992164.973                          35.700          35.400
 121454375.745 6  94464535.418 6                  22712580.055    22712579.363
  22712583.934                          36.600          36.200
 125726852.26215  97968995.43854  93886949.404 7  23925018.594
  23925025.918    23925026.086          31.300          27.800          43.100
 128962034.249 5 100489900.51544  96302825.564 6  24540660.391
  24540669.563    24540670.652          30.300          26.700          41.300
 105651946.567 7  82173772.669 6                  19750515.227    19750514.445
  19750521.910                          45.700          40.200
 107915483.779 5  83934292.879 6                  20209105.766    20209104.633
  20209110.938                          32.300          41.100
 114128571.544 6  88931319.93047                  21717929.500
  21717935.152                          40.500          42.600
 104622082.083 7  81372778.103 7                  19585478.086    19585477.227
  19585481.844                          45.500          46.800
 109465034.735 7  85297400.67645                  20830488.031
  20830492.742                          42.400          35.200
 120420185.413 5  93833983.49245  89924233.644 7  22915207.461
  22915217.531    22915215.578          33.600          33.700          45.700
 127335764.92415  99222702.42052                  24231191.578
  24231197.250                          32.300          17.400
 117842837.403 6  91825631.83344                  22424752.469
  22424757.508                          37.700          25.800
 123588155.688 7                  92289878.392 8  23518041.844
                  23518046.621          46.300                          51.200
 129922295.399 6                  97019923.665 7  24723390.305
                  24723395.680          38.100                          43.100
 134176275.685 6                 100196592.664 7  25532895.422
                  25532901.172          40.800                          44.700
 123447740.262 7                  92185017.554 7  23491324.648
                  23491330.590          44.300                          47.700
 121502637.065 7                  90732516.154 8  23121181.117
                  23121187.543          45.900                          51.400
 20  7  6  0  0 14.0000000  0 19G08G27R11R24G30G09R23R13G07R12G11G01
                                G21G16E27E14E13E30E15
 107030975.451 7  83400808.43148  79925769.987 8  20367321.039
  20367329.141    20367328.387          44.100          50.800          52.800
 113266033.579 6  88259285.62847  84581811.004 8  21553811.492
  21553818.902    21553818.301          40.900          44.500          49.500
 122866735.029 6  95563017.775 5                  22992836.016    22992835.828
  22992839.660                          36.000          34.700
 121450506.842 6  94461526.272 6                  22711855.609    22711856.180
  22711860.422                          37.100          36.100
 125723701.017 5  97966539.91844  93884596.204 7  23924418.344
  23924426.199    23924426.504          31.900          27.900          42.900
 128964465.000 5 100491794.60244  96304640.743 6  24541122.891
  24541132.230    24541133.250          30.800          27.000          41.600
 105649926.130 7  82172201.227 6                  19750137.773    19750136.797
  19750144.234                          46.100          40.600
 107912887.137 5  83932273.251 6                  20208621.266    20208618.438
  20208624.813                          32.900          40.400
 114126635.710 6  88929811.49047                  21717560.875
  21717566.770                          40.600          43.100
 104623241.651 7  81373679.983 7                  19585694.750    19585694.238
  19585698.930                          45.500          46.900
 109462968.020 7  85295790.24146                  20830094.367
  20830099.340                          43.200          36.000
 120416391.772 5  93831027.40545  89921400.753 7  22914485.422
  22914495.512    22914493.629          34.600          34.000          45.300
 127338617.488 5  99224925.17942                  24231734.828
  24231740.133                          32.400          17.800
 117844964.655 6  91827289.42644                  22425157.148
  22425162.270                          38.300          26.300
 123587223.499 7                  92289182.265 8  23517864.219
                  23517869.246          47.200                          51.400
 129916519.284 6                  97015610.313 7  24722291.164
                  24722296.613          38.600                          43.000
 134173548.130 6                 100194555.848 7  25532376.672
                  25532382.180          41.000                          44.900
 123449142.044 7                  92186064.337 7  23491591.492
                  23491597.301          44.900                          47.900
 121502196.292 7                  90732187.007 8  23121097.281
                  23121103.500          46.500                          51.400
 20  7  6  0  0 15.0000000  0 19G08G27R11R24G30G09R23R13G07R12G11G01
                                G21G16E27E14E13E30E15
 107031543.095 7  83401250.74948  79926193.870 8  20367429.391
  20367437.027    20367436.410          44.300          50.700          52.700
 113268380.248 6  88261114.20147  84583563.393 8  21554258.242
  21554265.387    21554264.766          41.400          44.500          49.100
 122870339.211 6  95565821.029 5                  22993510.016    22993510.375
  22993514.016                          36.800          35.200
 121446638.345 6  94458517.446 6                  22711131.758    22711132.480
  22711136.973                          37.100          36.000
 125720550.061 5  97964084.62444  93882243.230 7  23923817.852
  23923826.496    23923827.020          31.900          27.400          43.100
 128966895.890 5 100493688.79744  96306456.013 6  24541585.211
  24541594.652    24541595.578          31.300          27.300          41.300
 105647906.431 7  82170630.334 6                  19749759.734    19749759.367
  19749766.680                          46.700          39.900
 107910290.933 5  83930254.020 6                  20208134.688    20208132.559
  20208138.551                          33.100          39.600
 114124700.377 6  88928303.44147                  21717193.211
  21717198.402                          41.100          43.100
 104624401.917 7  81374582.409 7                  19585912.125    19585911.582
  19585916.145                          45.700          44.900
 109460901.785 7  85294180.19245                  20829700.820
  20829706.063                          43.000          35.700
 120412598.437 5  93828071.56445  89918568.055 7  22913763.172
  22913773.609    22913771.961          34.500          34.500          45.200
 127341470.252 5  99227148.11142                  24232277.406
  24232282.961                          33.100          17.800
 117847092.123 6  91828947.19344                  22425561.039
  22425567.086                          38.300          25.400
 123586291.519 7                  92288486.324 8  23517686.828
                  23517691.918          47.300                          51.000
 129910743.136 6                  97011296.950 7  24721192.094
                  24721197.539          39.000                          43.200
 134170820.815 6                 100192519.223 7  25531857.469
                  25531863.121          41.100                          44.700
 123450544.083 7                  92187111.325 8  23491858.180
                  23491864.059          44.800                          48.100
 121501755.989 7                  90731858.220 8  23121013.430
                  23121019.777          46.500                          50.900
 20  7  6  0  0 16.0000000  0 19G08G27R11R24G30G09R23R13G07R12G11G01
                                G21G16E27E14E13E30E15
 107032111.082 7  83401693.33248  79926618.026 8  20367537.492
  20367545.227    20367544.480          44.800          50.800          52.700
 113270727.135 6  88262942.94947  84585315.935 8  21554704.766
  21554711.910    21554711.445          41.200          44.500          49.200
 122873943.661 6  95568624.486 5                  22994185.508    22994185.301
  22994188.570                          36.600          35.800
 121442770.142 6  94455508.827 5                  22710408.711    22710408.945
  22710413.730                          37.000          35.700
 125717399.336 5  97961629.52244  93879890.442 7  23923217.828
  23923227.016    23923227.426          31.800          28.900          43.000
 128969326.957 5 100495583.13144  96308271.400 6  24542048.266
  24542057.441    24542058.145          31.900          27.700          41.300
 105645887.431 7  82169059.998 6                  19749382.961    19749381.840
  19749389.313                          46.400          40.100
 107907695.160 5  83928235.068 6                  20207649.273    20207646.344
  20207652.281                          32.800          40.100
 114122765.612 6  88926795.83247                  21716824.891
  21716830.238                          41.300          43.300
 104625562.798 7  81375485.323 7                  19586129.367    19586128.793
  19586133.449                          45.600          45.300
 109458836.052 7  85292570.53545                  20829307.742
  20829312.953                          43.000          35.700
 120408805.309 5  93825115.88245  89915735.511 7  22913042.945
  22913051.820    22913049.902          34.600          34.800          45.200
 127344323.311 5  99229371.29742                  24232820.828
  24232825.773                          33.400          17.800
 117849219.795 6  91830605.11244                  22425966.078
  22425971.953                          38.800          26.500
 123585359.762 7                  92287790.523 8  23517509.586
                  23517514.641          46.900                          50.500
 129904966.904 6                  97006983.561 7  24720093.016
                  24720098.223          39.100                          43.200
 134168093.720 6                 100190482.764 7  25531338.422
                  25531344.141          40.700                          44.800
 123451946.364 7                  92188158.483 8  23492124.977
                  23492131.063          44.900                          48.000
 121501316.146 7                  90731529.755 8  23120929.766
                  23120935.961          46.800                          51.000
 20  7  6  0  0 17.0000000  0 19G08G27R11R24G30G09R23R13G07R12G11G01
                                G21G16E27E14E13E30E15
 107032679.427 7  83402136.20148  79927042.438 8  20367645.172
  20367653.484    20367652.746          45.100          50.800          52.700
 113273074.186 6  88264771.81747  84587068.604 8  21555151.141
  21555158.660    21555158.035          41.500          44.700          49.500
 122877548.424 6  95571428.210 5                  22994860.125    22994859.727
  22994863.250                          37.100          35.600
 121438902.201 6  94452500.433 6                  22709685.367    22709685.547
  22709690.375                          36.800          36.200
 125714248.925 5  97959174.65044  93877537.840 7  23922618.063
  23922627.578    23922627.941          32.400          28.700          43.400
 128971758.052 5 100497477.48944  96310086.882 6  24542510.805
  24542520.059    24542520.766          32.200          26.900          41.100
 105643869.118 7  82167490.191 6                  19749005.500    19749004.547
  19749012.035                          46.200          40.200
 107905099.803 5  83926216.481 6                  20207163.305    20207160.352
  20207166.309                          32.500          40.000
 114120831.320 6  88925288.59047                  21716456.539
  21716462.164                          40.900          43.100
 104626724.294 7  81376388.707 7                  19586347.023    19586346.211
  19586350.852                          45.100          46.000
 109456770.788 7  85290961.23046                  20828915.078
  20828920.059                          43.300          36.300
 120405012.280 5  93822160.26845  89912903.091 7  22912320.719
  22912330.125    22912328.250          34.800          34.600          45.300
 127347176.596 5  99231594.60743                  24233363.633
  24233368.547                          33.700          19.000
 117851347.614 6  91832263.15444                  22426371.891
  22426376.914                          39.200          26.500
 123584428.191 7                  92287094.866 8  23517332.445
                  23517337.367          47.300                          50.700
 129899190.635 6                  97002670.096 7  24718993.953
                  24718999.164          39.100                          43.100
 134165366.844 6                 100188446.458 7  25530819.734
                  25530825.277          40.700                          44.800
 123453348.871 7                  92189205.813 8  23492391.953
                  23492397.832          45.000                          48.200
 121500876.739 7                  90731201.619 8  23120846.227
                  23120852.484          46.700                          50.900
 20  7  6  0  0 18.0000000  0 19G08G27R11R24G30G09R23R13G07R12G11G01
                                G21G16E27E14E13E30E15
 107033248.159 7  83402579.36948  79927467.144 8  20367753.930
  20367761.559    20367760.879          45.400          51.000          52.700
 113275421.468 6  88266600.86747  84588821.449 8  21555598.516
  21555605.195    21555604.664          41.600          44.600          49.900
 122881153.540 6  95574232.177 6                  22995535.094    22995534.309
  22995537.922                          36.800          36.400
 121435034.556 6  94449492.295 6                  22708962.469    22708962.098
  22708967.137                          36.900          36.100
 125711098.744 5  97956719.96344  93875185.445 7  23922018.859
  23922028.145    23922028.746          32.600          28.600          43.000
 128974189.350 5 100499371.99544  96311902.465 6  24542972.594
  24542982.613    24542983.402          31.900          26.100          40.900
 105641851.511 7  82165920.958 6                  19748628.734    19748627.488
  19748634.836                          46.200          40.000
 107902504.857 5  83924198.150 6                  20206677.289    20206674.582
  20206680.281                          33.200          40.100
 114118897.566 6  88923781.77547                  21716088.852
  21716094.148                          41.400          43.300
 104627886.484 7  81377292.628 7                  19586563.836    19586563.914
  19586568.559                          45.400          46.300
 109454706.030 7  85289352.32845                  20828522.594
  20828527.223                          43.200          35.900
 120401219.600 5  93819204.94145  89910070.869 7  22911598.391
  22911608.152    22911606.461          35.300          34.700          45.500
 127350030.193 5  99233818.19942                  24233907.000
  24233911.664                          33.400          17.800
 117853475.666 6  91833921.38144                  22426775.953
  22426781.805                          39.200          26.400
 123583496.837 7                  92286399.374 8  23517155.125
                  23517160.051          47.100                          50.800
 129893414.312 6                  96998356.608 7  24717894.586
                  24717900.035          38.900                          43.100
 134162640.226 6                 100186410.327 7  25530300.711
                  25530306.387          40.600                          44.900
 123454751.643 7                  92190253.344 8  23492658.781
                  23492664.785          45.300                          48.200
 121500437.797 7                  90730873.843 8  23120762.430
                  23120768.965          46.700                          51.200
 20  7  6  0  0 19.0000000  0 19G08G27R11R24G30G09R23R13G07R12G11G01
                                G21G16E27E14E13E30E15
 107033817.267 7  83403022.83048  79927892.132 8  20367862.563
  20367869.938    20367869.188          45.700          51.100          52.700
 113277768.989 6  88268430.10647  84590574.453 8  21556044.383
  21556051.914    21556051.500          41.700          44.700          49.800
 122884758.950 6  95577036.362 6                  22996209.219    22996209.234
  22996212.723                          37.000          36.700
 121431167.354 6  94446484.434 6                  22708237.375    22708238.996
  22708243.988                          37.000          36.500
 125707948.936 5  97954265.57944  93872833.305 7  23921419.492
  23921428.676    23921429.164          32.400          27.600          43.300
 128976620.884 5 100501266.69044  96313718.159 6  24543435.617
  24543445.234    24543446.156          31.900          27.700          40.800
 105639834.649 7  82164352.289 6                  19748252.031    19748250.508
  19748257.898                          46.200          39.900
 107899910.345 5  83922180.225 6                  20206190.969    20206188.953
  20206194.371                          32.400          40.300
 114116964.372 6  88922275.38947                  21715721.430
  21715726.352                          41.400          43.400
 104629049.406 7  81378197.126 7                  19586781.852    19586781.574
  19586786.180                          45.300          46.500
 109452641.802 7  85287743.83945                  20828128.930
  20828134.320                          43.200          35.700
 120397427.129 5  93816249.76745  89907238.821 7  22910877.492
  22910886.473    22910884.816          35.200          34.700          45.400
 127352883.488 5  99236041.44542                  24234449.195
  24234454.879                          33.600          16.900
 117855603.957 6  91835579.78844                  22427181.398
  22427186.855                          39.000          26.700
 123582565.721 7                  92285704.059 8  23516977.867
                  23516982.914          47.300                          50.200
 129887637.968 6                  96994043.105 7  24716795.266
                  24716800.680          39.300                          43.400
 134159913.828 6                 100184374.409 7  25529781.828
                  25529787.793          40.900                          44.800
 123456154.680 7                  92191301.060 8  23492925.883
                  23492931.715          45.500                          48.300
 121499999.324 7                  90730546.418 8  23120679.180
                  23120685.531          46.800                          51.300
 20  7  6  0  0 20.0000000  0 19G08G27R11R24G30G09R23R13G07R12G11G01
                                G21G16E27E14E13E30E15
 107034386.671 7  83403466.52348  79928317.335 8  20367970.586
  20367978.113    20367977.492          45.800          51.000          52.800
 113280116.622 6  88270259.42847  84592327.571 8  21556491.453
  21556498.723    21556498.148          41.800          44.500          49.700
 122888364.515 6  95579840.725 6                  22996884.945    22996883.648
  22996887.391                          36.600          36.300
 121427300.373 6  94443476.779 6                  22707516.750    22707515.902
  22707520.832                          36.900          36.700
 125704799.252 5  97951811.27644  93870481.299 7  23920820.227
  23920829.465    23920829.863          33.200          28.200          43.100
 128979052.422 5 100503161.40044  96315533.920 6  24543898.570
  24543907.898    24543908.859          31.500          26.900          41.000
 105637818.407 7  82162784.098 6                  19747874.328    19747873.473
  19747881.039                          46.200          40.000
 107897316.255 5  83920162.591 6                  20205707.125    20205703.363
  20205708.484                          32.700          40.200
 114115031.605 6  88920769.33147                  21715353.672
  21715358.480                          41.300          43.000
 104630212.914 7  81379102.082 7                  19586999.852    19586999.426
  19587004.012                          45.500          46.700
 109450577.970 7  85286135.66646                  20827736.461
  20827741.602                          43.500          36.300
 120393634.733 5  93813294.66545  89904406.865 7  22910155.906
  22910164.684    22910163.129          35.400          34.900          45.300
 127355737.537 5  99238265.36042                  24234993.305
  24234997.848                          33.600          17.800
 117857732.348 6  91837238.27544                  22427586.688
  22427591.836                          39.300          25.600
 123581634.739 7                  92285008.848 8  23516800.711
                  23516805.680          47.600                          50.100
 129881861.474 6                  96989729.505 7  24715696.313
                  24715701.441          38.900                          42.900
 134157187.600 6                 100182338.587 7  25529263.328
                  25529268.715          41.100                          45.300
 123457557.895 7                  92192348.915 7  23493193.156
                  23493198.750          45.100                          47.800
 121499561.242 7                  90730219.280 8  23120595.758
                  23120602.168          46.900                          50.800
 20  7  6  0  0 21.0000000  0 19G08G27R11R24G30G09R23R13G07R12G11G01
                                G21G16E27E14E13E30E15
 107034956.512 7  83403910.55948  79928742.861 8  20368078.828
  20368086.629    20368085.961          45.500          50.900          52.800
