     2.11           OBSERVATION DATA    M (MIXED)           RINEX VERSION / TYPE
teqc  2016Nov7      KASI/KOREA          20200706 00:32:36UTCPGM / RUN BY / DATE
Linux 2.4.20-8|Pentium IV|gcc|Linux|486/DX+                 COMMENT
  0.0000      (antenna height)                              COMMENT
 +36.39942714 (latitude)                                    COMMENT
+127.37448264 (longitude)                                   COMMENT
0116.859      (elevation)                                   COMMENT
BIT 2 OF LLI FLAGS DATA COLLECTED UNDER A/S CONDITION       COMMENT
23902M002 (COGO code)                                       COMMENT
DAEJ                                                        MARKER NAME
23902M002                                                   MARKER NUMBER
KASI GPS            KASI/KOREA                              OBSERVER / AGENCY
5412K48145          TRIMBLE NETR9       5.44                REC # / TYPE / VERS
4923363230          TRM59800.00     SCIS                    ANT # / TYPE
 -3120042.4604  4084615.4910  3764027.5537                  APPROX POSITION XYZ
        0.0000        0.0000        0.0000                  ANTENNA: DELTA H/E/N
     1     1                                                WAVELENGTH FACT L1/2
    10    L1    L2    L5    C1    P1    P2    C5    S1    S2# / TYPES OF OBSERV
          S5                                                # / TYPES OF OBSERV
    18                                                      LEAP SECONDS
 SNR is mapped to RINEX snr flag value [0-9]                COMMENT
  L1 & L2: min(max(int(snr_dBHz/6), 0), 9)                  COMMENT
  2020     7     6     0    15    0.0000000     GPS         TIME OF FIRST OBS
                                                            END OF HEADER
 20  7  6  0 15  0.0000000  0 18G08G27R24G30G09R23R13G07R12G11G01G21
                                G16E27E14E13E30E15
 107672147.319 7  83900422.75148  80404567.030 8  20489332.539
  20489340.207    20489339.504          45.800          50.500          52.600
 115417507.501 6  89935758.23045  86188430.477 8  21963224.086
  21963231.258    21963230.926          40.900          31.500          49.100
 118159134.661 6  91901570.582 6                  22096351.664    22096351.543
  22096357.242                          38.900          38.100
 123050415.969 5  95883461.28245  91888312.645 7  23415708.523
  23415716.824    23415715.883          34.000          31.300          43.200
 131160555.030 5 102203031.26844  97944575.363 6  24959028.578
  24959036.242    24959037.824          31.300          24.300          39.500
 104141182.919 7  80998734.674 6                  19468093.711    19468092.484
  19468100.430                          46.200          40.900
 105794434.581 5  82284588.093 6                  19811900.781    19811900.160
  19811906.113                          33.200          41.000
 112625920.089 7  87760422.59747                  21431984.867
  21431990.309                          42.900          44.600
 105912428.754 7  82376380.464 7                  19827034.008    19827033.016
  19827038.156                          45.500          45.600
 107829707.287 7  84023119.78646                  20519295.133
  20519299.879                          43.200          37.200
 117152656.611 6  91287857.47446  87484196.250 7  22293417.039
  22293427.055    22293425.148          38.900          39.100          47.000
 129958261.964 5 101266205.55342                  24730237.852
  24730243.301                          31.600          15.600
 119808462.895 6  93357287.49243                  22798798.742
  22798804.047                          37.800          22.200
 122848299.800 7                  91737388.556 8  23377251.672
                  23377256.801          46.400                          51.000
 124788893.421 6                  93186539.451 7  23746535.258
                  23746541.285          40.000                          43.700
 131852421.650 7                  98461247.563 7  25090680.234
                  25090686.230          42.700                          47.200
 124788658.779 7                  93186352.086 7  23746493.711
                  23746499.379          44.100                          47.100
 121288866.723 7                  90572882.471 8  23080502.016
                  23080508.297          46.500                          51.000
 20  7  6  0 15  1.0000000  0 18G08G27R24G30G09R23R13G07R12G11G01G21
                                G16E27E14E13E30E15
 107673020.439 7  83901103.09748  80405219.034 8  20489498.500
  20489506.293    20489505.539          45.800          50.500          52.700
 115420009.213 6  89937707.62345  86190298.638 8  21963700.078
  21963707.262    21963706.992          40.800          32.300          49.100
 118155585.523 6  91898810.144 6                  22095688.188    22095687.781
  22095693.457                          38.800          38.500
 123047545.319 5  95881224.41345  91886168.996 7  23415162.359
  23415170.449    23415169.824          33.700          31.600          43.200
 131163066.986 5 102204988.65443  97946451.163 6  24959504.742
  24959514.277    24959515.801          30.500          23.500          39.200
 104139800.663 7  80997659.582 6                  19467835.070    19467834.137
  19467842.059                          46.200          41.200
 105792266.031 5  82282901.392 6                  19811495.344    19811494.129
  19811500.023                          33.200          40.900
 112624478.196 7  87759299.03847                  21431710.852
  21431715.910                          42.900          44.700
 105914178.944 7  82377741.713 7                  19827361.211    19827360.695
  19827365.750                          45.600          46.200
 107828092.504 7  84021861.52746                  20518988.195
  20518992.605                          43.500          37.300
 117149097.541 6  91285084.17946  87481538.532 7  22292740.391
  22292749.590    22292747.996          39.000          39.100          47.100
 129961312.19015 101268582.44852                  24730819.289
  24730823.406                          31.900          13.900
 119810767.560 6  93359083.35643                  22799237.891
  22799242.535                          37.800          23.200
 122847569.619 7                  91736843.292 8  23377112.664
                  23377117.793          46.600                          50.500
 124783106.705 6                  93182218.196 7  23745434.352
                  23745440.406          40.000                          43.400
 131849915.659 7                  98459376.209 7  25090203.438
                  25090209.508          42.600                          47.000
 124790281.536 7                  93187563.878 7  23746802.242
                  23746808.152          44.400                          46.700
 121288824.051 7                  90572850.598 8  23080493.813
                  23080500.109          46.300                          50.900
 20  7  6  0 15  2.0000000  0 18G08G27R24G30G09R23R13G07R12G11G01G21
                                G16E27E14E13E30E15
 107673893.880 7  83901783.70748  80405871.271 8  20489665.023
  20489672.625    20489671.898          45.600          50.600          53.000
 115422511.072 6  89939657.12545  86192166.921 8  21964175.656
  21964183.355    21964182.965          40.800          31.700          49.000
 118152036.767 6  91896049.993 6                  22095024.023    22095024.422
  22095029.742                          38.800          38.700
 123044675.066 5  95878987.84545  91884025.609 7  23414615.859
  23414624.344    23414623.723          34.200          31.600          43.400
 131165578.970 5 102206946.03043  97948326.996 6  24959982.188
  24959992.395    24959994.094          30.300          23.900          39.200
 104138419.114 7  80996585.054 6                  19467576.570    19467575.629
  19467583.805                          46.300          41.100
 105790098.045 5  82281215.153 6                  19811090.289    19811088.090
  19811094.035                          32.900          41.000
 112623036.890 7  87758175.94347                  21431436.430
  21431441.711                          43.300          44.700
 105915929.777 7  82379103.493 7                  19827689.281    19827688.438
  19827693.496                          45.700          46.000
 107826478.247 7  84020603.66046                  20518680.734
  20518685.414                          43.800          36.900
 117145538.805 6  91282311.14146  87478881.028 7  22292062.695
  22292072.574    22292070.719          39.000          39.000          47.200
 129964361.656 5 101270958.56242                  24731399.188
  24731403.863                          32.400          14.800
 119813072.476 6  93360879.38743                  22799676.047
  22799681.199                          38.200          23.600
 122846839.691 7                  91736298.212 8  23376973.758
                  23376978.914          46.400                          50.800
 124777320.004 6                  93177896.955 7  23744333.453
                  23744339.223          40.200                          43.900
 131847409.924 7                  98457505.030 7  25089726.648
                  25089732.523          42.200                          46.700
 124791904.551 7                  93188775.864 7  23747111.148
                  23747117.133          44.400                          46.800
 121288781.816 7                  90572819.062 8  23080485.836
                  23080492.121          46.700                          50.700
 20  7  6  0 15  3.0000000  0 18G08G27R24G30G09R23R13G07R12G11G01G21
                                G16E27E14E13E30E15
 107674767.641 7  83902464.55648  80406523.771 8  20489831.242
  20489838.930    20489838.039          45.800          50.500          53.000
 115425013.090 6  89941606.74945  86194035.304 8  21964651.734
  21964659.504    21964659.023          41.000          31.800          48.500
 118148488.420 6  91893290.180 6                  22094359.898    22094361.055
  22094366.305                          38.800          38.200
 123041805.118 5  95876751.52645  91881882.491 7  23414069.648
  23414078.227    23414077.559          34.400          31.700          43.400
 131168091.019 5 102208903.46844  97950202.868 6  24960460.656
  24960470.430    24960472.039          30.700          24.100          39.100
 104137038.320 7  80995511.095 6                  19467319.328    19467317.793
  19467325.793                          46.300          40.800
 105787930.589 5  82279529.387 6                  19810683.641    19810682.492
  19810688.027                          32.800          41.400
 112621596.184 7  87757053.31847                  21431162.094
  21431167.340                          43.200          44.700
 105917681.294 7  82380465.761 7                  19828017.688    19828016.230
  19828021.297                          46.000          46.000
 107824864.536 7  84019346.21946                  20518373.023
  20518378.281                          43.900          37.000
 117141980.373 6  91279538.34946  87476223.776 7  22291386.047
  22291395.539    22291393.742          39.300          39.300          47.500
 129967412.31015 101273335.86152                  24731979.859
  24731984.387                          32.300          15.600
 119815377.607 6  93362675.59043                  22800114.289
  22800119.832                          37.900          22.900
 122846110.020 7                  91735753.329 8  23376834.891
                  23376840.066          46.700                          50.900
 124771533.368 6                  93173575.752 7  23743232.125
                  23743237.988          40.100                          44.000
 131844904.448 7                  98455634.076 7  25089249.844
                  25089255.855          42.100                          46.700
 124793527.803 7                  93189988.047 7  23747420.156
                  23747426.051          44.600                          47.200
 121288740.027 7                  90572787.867 8  23080477.789
                  23080484.082          46.600                          51.000
 20  7  6  0 15  4.0000000  0 18G08G27R24G30G09R23R13G07R12G11G01G21
                                G16E27E14E13E30E15
 107675641.774 7  83903145.69448  80407176.513 8  20489997.289
  20490005.266    20490004.367          45.600          50.500          52.700
 115427515.303 6  89943556.52245  86195903.838 8  21965127.828
  21965135.637    21965135.246          40.200          31.100          48.700
 118144940.513 6  91890530.713 6                  22093697.445    22093697.906
  22093702.723                          38.600          38.500
 123038935.614 5  95874515.55545  91879739.693 7  23413523.680
  23413532.086    23413531.395          34.600          31.500          43.400
 131170603.122 5 102210860.93644  97952078.796 6  24960938.797
  24960948.465    24960950.031          30.300          25.000          39.200
 104135658.268 7  80994437.730 6                  19467060.492    19467059.805
  19467067.668                          46.100          41.000
 105785763.763 5  82277844.063 6                  19810278.555    19810276.820
  19810282.375                          33.400          41.100
 112620156.107 7  87755931.17647                  21430888.305
  21430893.305                          43.000          44.600
 105919433.503 7  82381828.594 7                  19828345.438    19828344.488
  19828349.309                          46.000          46.200
 107823251.381 7  84018089.21546                  20518066.398
  20518071.422                          44.100          37.300
 117138422.307 6  91276765.83546  87473566.777 7  22290708.484
  22290718.215    22290716.563          38.800          39.200          47.600
 129970462.646 5 101275712.78142                  24732560.203
  24732564.918                          31.000          15.600
 119817682.961 6  93364471.97143                  22800553.336
  22800558.551                          37.800          23.200
 122845380.643 7                  91735208.662 8  23376696.117
                  23376701.297          46.800                          50.600
 124765746.792 6                  93169254.598 7  23742131.016
                  23742136.902          39.700                          43.900
 131842399.319 7                  98453763.345 7  25088772.961
                  25088779.020          42.200                          46.100
 124795151.351 7                  93191200.436 7  23747728.961
                  23747734.957          44.700                          47.100
 121288698.717 7                  90572757.015 8  23080469.922
                  23080476.316          46.500                          51.000
 20  7  6  0 15  5.0000000  0 18G08G27R24G30G09R23R13G07R12G11G01G21
                                G16E27E14E13E30E15
 107676516.136 7  83903827.01948  80407829.460 8  20490163.836
  20490171.629    20490170.773          45.800          50.500          52.700
 115430017.628 6  89945506.37945  86197772.430 8  21965604.000
  21965611.766    21965611.453          39.700          32.100          48.500
 118141392.976 6  91887771.528 6                  22093032.813    22093034.277
  22093039.379                          38.800          38.900
 123036066.432 5  95872279.83245  91877597.092 7  23412977.656
  23412985.969    23412985.395          34.000          32.000          43.500
 131173115.234 5 102212818.42743  97953954.722 6  24961416.008
  24961426.512    24961427.953          30.800          23.200          39.300
 104134278.880 7  80993364.862 6                  19466803.289    19466802.047
  19466809.766                          46.100          41.300
 105783597.382 5  82276159.083 6                  19809873.313    19809870.875
  19809876.602                          33.200          41.200
 112618716.547 7  87754809.44447                  21430614.156
  21430619.453                          42.600          44.600
 105921186.321 7  82383191.901 7                  19828672.930    19828672.617
  19828677.402                          45.900          46.100
 107821638.709 7  84016832.59246                  20517759.891
  20517764.711                          44.400          37.500
 117134864.517 6  91273993.53746  87470909.978 7  22290031.773
  22290041.156    22290039.582          38.700          39.300          47.500
 129973513.236 5 101278089.78442                  24733139.844
  24733145.301                          31.900          14.800
 119819988.453 6  93366268.45443                  22800991.391
  22800997.348                          37.700          22.900
 122844651.442 7                  91734664.134 8  23376557.414
                  23376562.488          46.900                          50.800
 124759960.168 6                  93164933.433 7  23741029.992
                  23741035.770          40.000                          44.000
 131839894.366 6                  98451892.783 7  25088296.313
                  25088302.352          41.800                          46.100
 124796775.104 7                  93192412.986 7  23748037.930
                  23748043.945          44.600                          47.600
 121288657.796 7                  90572726.473 8  23080462.305
                  23080468.465          46.700                          51.000
 20  7  6  0 15  6.0000000  0 18G08G27R24G30G09R23R13G07R12G11G01G21
                                G16E27E14E13E30E15
 107677390.810 7  83904508.58948  80408482.621 8  20490330.445
  20490338.023    20490337.203          45.700          50.500          52.500
 115432520.067 6  89947456.32845  86199641.135 8  21966080.484
  21966087.844    21966087.684          39.900          31.700          48.300
 118137845.843 6  91885012.607 6                  22092370.500    22092370.801
  22092376.043                          39.200          38.500
 123033197.547 5  95870044.32845  91875454.759 7  23412430.867
  23412439.922    23412439.605          34.800          31.500          43.900
 131175627.411 5 102214775.96743  97955830.678 6  24961894.977
  24961904.574    24961906.145          30.800          22.600          39.000
 104132900.194 7  80992292.561 6                  19466545.195    19466544.281
  19466552.063                          46.000          41.200
 105781431.544 5  82274474.547 6                  19809467.930    19809465.535
  19809471.023                          33.400          41.500
 112617277.574 7  87753688.16647                  21430340.852
  21430345.711                          42.900          44.800
 105922939.784 7  82384555.706 7                  19829001.773    19829000.859
  19829005.691                          45.600          46.300
 107820026.536 7  84015576.34846                  20517452.773
  20517457.996                          44.300          36.900
 117131306.981 6  91271221.42946  87468253.405 7  22289354.563
  22289364.129    22289362.645          38.700          38.800          47.100
 129976563.83915 101280466.81752                  24733720.258
  24733725.941                          31.300          14.800
 119822294.157 6  93368065.10743                  22801429.977
  22801436.207                          37.800          22.500
 122843922.489 7                  91734119.773 8  23376418.586
                  23376423.832          46.700                          50.800
 124754173.569 6                  93160612.283 7  23739929.094
                  23739934.719          39.900                          44.100
 131837389.692 7                  98450022.402 7  25087819.539
                  25087825.699          42.000                          46.600
 124798399.098 7                  93193625.696 7  23748346.828
                  23748352.953          43.800                          47.200
 121288617.322 7                  90572696.227 8  23080454.445
                  23080460.703          46.500                          51.000
 20  7  6  0 15  7.0000000  0 18G08G27R24G30G09R23R13G07R12G11G01G21
                                G16E27E14E13E30E15
 107678265.850 7  83905190.43248  80409136.061 8  20490496.703
  20490504.543    20490503.770          45.200          50.500          52.600
 115435022.649 6  89949406.39345  86201509.969 8  21966556.773
  21966564.199    21966563.895          40.100          31.800          48.300
 118134299.065 6  91882254.049 6                  22091707.305    22091707.289
  22091712.668                          39.200          39.000
 123030329.055 5  95867809.14345  91873312.723 7  23411885.180
  23411894.047    23411893.789          34.300          31.400          43.600
 131178139.599 5 102216733.50743  97957706.679 6  24962373.766
  24962382.715    24962384.031          30.300          23.300          39.100
 104131522.295 7  80991220.855 6                  19466287.891    19466286.809
  19466294.492                          46.300          40.800
 105779266.294 5  82272790.446 6                  19809061.195    19809059.848
  19809065.488                          32.700          40.900
 112615839.232 7  87752567.37747                  21430066.898
  21430072.008                          42.500          44.900
 105924693.947 7  82385920.048 7                  19829329.703    19829329.387
  19829334.066                          45.300          46.300
 107818414.931 7  84014320.55646                  20517145.984
  20517151.098                          44.100          36.800
 117127749.836 6  91268449.63546  87465597.088 7  22288677.336
  22288687.160    22288685.680          39.200          38.900          47.400
 129979614.242 5 101282843.68842                  24734301.320
  24734306.469                          31.000          14.800
 119824600.017 6  93369861.88043                  22801869.492
  22801874.844                          37.800          23.900
 122843193.805 7                  91733575.632 8  23376280.125
                  23376285.117          47.000                          50.800
 124748387.039 6                  93156291.167 7  23738827.641
                  23738833.508          40.400                          43.800
 131834885.321 6                  98448152.254 7  25087343.094
                  25087349.148          41.900                          46.600
 124800023.378 7                  93194838.634 7  23748656.305
                  23748662.105          43.800                          47.400
 121288577.307 7                  90572666.352 8  23080447.016
                  23080453.172          46.600                          50.900
 20  7  6  0 15  8.0000000  0 18G08G27R24G30G09R23R13G07R12G11G01G21
                                G16E27E14E13E30E15
 107679141.216 7  83905872.54548  80409789.742 8  20490663.594
  20490671.020    20490670.375          45.000          50.500          53.000
 115437525.425 6  89951356.60345  86203378.912 8  21967033.156
  21967040.508    21967040.234          39.700          31.600          48.400
 118130752.743 6  91879495.765 6                  22091044.375    22091044.055
  22091049.438                          38.900          38.900
 123027460.984 5  95865574.27745  91871170.956 7  23411339.758
  23411348.254    23411348.012          35.200          31.500          44.000
 131180651.809 5 102218691.09043  97959582.692 6  24962851.664
  24962860.789    24962861.629          31.000          22.200          39.300
 104130145.123 7  80990149.729 6                  19466030.234    19466029.211
  19466037.098                          46.700          40.600
 105777101.604 5  82271106.822 6                  19808655.633    19808654.691
  19808660.137                          33.300          40.900
 112614401.473 7  87751447.05147                  21429793.359
  21429798.438                          42.700          44.700
 105926448.795 7  82387284.928 7                  19829658.922    19829657.895
  19829662.555                          45.400          46.300
 107816803.874 7  84013065.18246                  20516839.703
  20516844.402                          44.300          36.900
 117124193.011 6  91265678.08646  87462941.018 7  22288000.703
  22288010.246    22288008.898          38.800          38.900          47.100
 129982665.309 5 101285221.08142                  24734882.008
  24734887.160                          30.800          16.300
 119826906.162 6  93371658.88243                  22802308.734
  22802313.574                          37.800          22.900
 122842465.383 7                  91733031.671 8  23376141.297
                  23376146.539          47.100                          50.800
 124742600.546 6                  93151970.094 7  23737726.805
                  23737732.301          40.200                          44.100
 131832381.217 7                  98446282.313 7  25086866.516
                  25086872.648          42.300                          46.800
 124801647.919 7                  93196051.753 7  23748965.266
                  23748971.258          43.900                          47.100
 121288537.736 7                  90572636.796 8  23080439.547
                  23080445.504          46.800                          50.900
 20  7  6  0 15  9.0000000  0 18G08G27R24G30G09R23R13G07R12G11G01G21
                                G16E27E14E13E30E15
 107680016.914 7  83906554.89748  80410443.669 8  20490830.016
  20490837.781    20490836.949          45.200          50.300          52.900
 115440028.344 6  89953306.93145  86205247.997 8  21967509.109
  21967516.770    21967516.449          39.900          31.500          48.100
 118127206.794 6  91876737.834 6                  22090381.102    22090381.188
  22090386.309                          39.000          38.300
 123024593.238 5  95863339.67645  91869029.464 7  23410794.297
  23410802.516    23410802.238          34.800          31.800          43.800
 131183164.164 5 102220648.75743  97961458.761 6  24963328.836
  24963338.828    24963340.004          30.500          21.700          39.200
 104128768.704 7  80989079.173 6                  19465773.102    19465772.090
  19465779.703                          46.500          40.600
 105774937.437 5  82269423.623 6                  19808250.180    19808249.547
  19808254.766                          33.700          41.200
 112612964.331 7  87750327.20447                  21429519.461
  21429524.938                          42.400          44.600
 105928204.322 7  82388650.336 7                  19829987.406    19829986.516
  19829991.152                          45.500          45.600
 107815193.328 7  84011810.21246                  20516533.164
  20516537.934                          44.600          37.000
 117120636.500 6  91262906.77846  87460285.188 7  22287324.102
  22287333.371    22287332.152          39.000          38.600          47.000
 129985717.16115 101287599.28352                  24735464.039
  24735467.754                          31.800          16.300
 119829212.474 6  93373456.00044                  22802747.102
  22802752.520                          37.600          25.200
 122841737.195 7                  91732487.916 8  23376002.945
                  23376007.895          46.900                          50.600
 124736814.077 6                  93147649.042 7  23736625.680
                  23736631.148          39.800                          43.800
 131829877.380 7                  98444412.578 7  25086390.211
                  25086396.184          42.300                          46.900
 124803272.706 7                  93197265.078 7  23749274.523
                  23749280.359          44.100                          47.300
 121288498.617 7                  90572607.599 8  23080431.938
                  23080438.230          46.300                          50.800
 20  7  6  0 15 10.0000000  0 18G08G27R24G30G09R23R13G07R12G11G01G21
                                G16E27E14E13E30E15
 107680892.899 7  83907237.48348  80411097.830 8  20490996.906
  20491004.336    20491003.688          45.700          50.400          52.700
 115442531.400 6  89955257.36145  86207117.148 8  21967985.266
  21967993.031    21967992.820          39.900          31.200          48.300
 118123661.268 6  91873980.169 6                  22089717.719    22089717.895
  22089723.238                          39.000          38.500
 123021725.851 5  95861105.35245  91866888.242 7  23410248.852
  23410256.852    23410256.641          35.300          31.400          43.400
 131185676.449 5 102222606.38443  97963334.857 6  24963806.820
  24963817.004    24963818.152          31.000          22.800          39.100
 104127392.991 7  80988009.184 6                  19465515.688    19465514.719
  19465522.438                          46.400          41.100
 105772773.855 5  82267740.790 6                  19807845.750    19807844.422
  19807849.605                          33.300          41.100
 112611527.743 7  87749207.77747                  21429246.047
  21429251.531                          42.200          44.700
 105929960.484 7  82390016.242 7                  19830315.797    19830315.145
  19830319.941                          45.400          46.000
 107813583.308 7  84010555.65546                  20516226.383
  20516231.480                          44.500          37.000
 117117080.291 6  91260135.70946  87457629.575 7  22286647.242
  22286656.652    22286655.480          39.100          38.400          47.200
 129988768.591 5 101289977.06842                  24736043.953
  24736048.352                          31.900          16.300
 119831518.975 6  93375253.26043                  22803186.570
  22803191.602                          37.400          22.800
 122841009.265 7                  91731944.319 8  23375864.406
                  23375869.383          46.600                          50.700
 124731027.666 6                  93143327.988 7  23735524.648
                  23735530.172          39.700                          43.800
 131827373.833 7                  98442543.032 7  25085913.945
                  25085919.965          42.300                          46.700
 124804897.753 7                  93198478.573 7  23749583.719
                  23749589.609          44.000                          47.400
 121288459.945 7                  90572578.693 8  23080424.609
                  23080430.836          46.500                          50.700
 20  7  6  0 15 11.0000000  0 18G08G27R24G30G09R23R13G07R12G11G01G21
                                G16E27E14E13E30E15
 107681769.231 7  83907920.34448  80411752.220 8  20491163.648
  20491171.199    20491170.422          45.700          50.400          52.500
 115445034.630 6  89957207.92845  86208986.429 8  21968461.742
  21968469.402    21968469.086          39.800          31.900          48.400
 118120116.124 6  91871222.856 6                  22089055.789    22089055.035
  22089060.297                          39.000          38.400
 123018858.822 5  95858871.30845  91864747.285 7  23409703.844
  23409711.223    23409710.883          35.500          31.600          43.400
 131188188.851 5 102224564.08543  97965210.983 6  24964285.047
  24964294.879    24964296.188          31.300          22.500          39.300
 104126018.009 7  80986939.738 6                  19465259.367    19465258.031
  19465265.375                          46.200          40.900
 105770610.791 5  82266058.415 6                  19807439.898    19807439.125
  19807444.617                          33.300          40.900
 112610091.778 7  87748088.84747                  21428972.891
  21428978.211                          42.500          44.700
 105931717.321 7  82391382.674 7                  19830644.859    19830644.172
  19830648.863                          45.300          46.000
 107811973.828 7  84009301.51346                  20515920.883
  20515925.215                          44.600          37.000
 117113524.397 6  91257364.89146  87454974.215 7  22285970.406
  22285980.070    22285979.000          39.100          38.800          47.200
 129991820.199 5 101292354.91842                  24736623.711
  24736629.098                          32.000          16.900
 119833825.666 6  93377050.69543                  22803625.359
  22803630.656                          37.900          23.800
 122840281.574 7                  91731400.919 8  23375726.086
                  23375730.805          46.500                          50.600
 124725241.267 6                  93139006.976 7  23734423.664
                  23734428.809          39.900                          44.100
 131824870.542 6                  98440673.694 7  25085437.586
                  25085443.508          41.900                          46.800
 124806523.022 7                  93199692.256 7  23749892.945
                  23749898.848          44.000                          47.300
 121288421.695 7                  90572550.148 8  23080417.359
                  23080423.582          46.500                          50.900
 20  7  6  0 15 12.0000000  0 18G08G27R24G30G09R23R13G07R12G11G01G21
                                G16E27E14E13E30E15
 107682645.879 7  83908603.44548  80412406.861 8  20491330.234
  20491337.945    20491337.277          45.500          50.300          52.600
 115447537.970 6  89959158.58245  86210855.810 8  21968938.242
  21968945.699    21968945.688          40.000          31.000          48.300
 118116571.374 6  91868465.814 6                  22088392.313    22088391.926
  22088397.238                          39.400          38.500
 123015992.156 5  95856637.53345  91862606.595 7  23409157.023
  23409165.699    23409165.590          35.300          31.300          43.500
 131190701.278 5 102226521.82643  97967087.125 6  24964763.688
  24964773.094    24964774.172          30.800          22.800          39.400
 104124643.730 7  80985870.870 6                  19465001.695    19465001.176
  19465008.484                          46.400          41.100
 105768448.270 5  82264376.468 6                  19807035.352    19807033.637
  19807039.645                          32.900          41.000
 112608656.368 7  87746970.34647                  21428699.719
  21428705.266                          42.000          44.600
 105933474.811 7  82392749.606 7                  19830973.320    19830973.406
  19830977.781                          45.600          46.000
 107810364.864 7  84008047.77746                  20515614.453
  20515619.188                          44.700          37.000
 117109968.833 6  91254594.33246  87452319.097 7  22285294.188
  22285303.484    22285302.293          38.700          39.400          47.200
 129994872.016 5 101294732.96742                  24737205.758
  24737209.871                          32.000          15.600
 119836132.571 6  93378848.28944                  22804063.797
  22804069.699                          38.000          24.900
 122839554.133 7                  91730857.701 8  23375587.297
                  23375592.418          46.700                          50.700
 124719454.875 6                  93134685.980 7  23733322.711
                  23733327.887          39.600                          44.000
 131822367.524 6                  98438804.545 7  25084961.344
                  25084967.246          41.800                          46.900
 124808148.561 7                  93200906.133 7  23750202.188
                  23750208.156          44.100                          47.300
 121288383.886 7                  90572521.913 8  23080410.133
                  23080416.258          46.300                          51.000
 20  7  6  0 15 13.0000000  0 18G08G27R24G30G09R23R13G07R12G11G01G21
                                G16E27E14E13E30E15
 107683522.828 7  83909286.78248  80413061.736 8  20491497.234
  20491504.883    20491504.152          45.300          50.400          52.800
 115450041.429 6  89961109.32545  86212725.294 8  21969415.016
  21969422.250    21969421.902          39.800          32.100          48.300
 118113027.024 6  91865709.078 6                  22087729.445    22087729.207
  22087734.406                          39.400          38.400
 123013125.825 5  95854404.02745  91860466.157 7  23408611.680
  23408620.406    23408620.102          34.800          31.400          43.500
 131193213.729 5 102228479.58343  97968963.319 6  24965241.555
  24965251.238    24965252.344          31.300          23.200          39.200
 104123270.167 7  80984802.526 6                  19464745.125    19464744.371
  19464751.727                          46.400          41.100
 105766286.294 5  82262694.894 6                  19806630.430    19806629.027
  19806634.848                          33.400          41.400
 112607221.541 6  87745852.30247                  21428426.602
  21428432.043                          41.900          44.700
 105935232.913 7  82394117.035 7                  19831302.195    19831302.383
  19831306.926                          45.500          45.900
 107808756.404 7  84006794.43346                  20515307.727
  20515313.070                          44.300          37.100
 117106413.530 6  91251823.96846  87449664.178 7  22284617.242
  22284626.883    22284625.867          39.200          39.400          47.300
 129997923.485 5 101297110.60042                  24737785.422
  24737790.629                          32.200          15.600
 119838439.669 6  93380646.03244                  22804502.781
  22804508.746                          38.200          25.000
 122838826.922 7                  91730314.644 8  23375448.875
                  23375454.078          46.700                          50.600
 124713668.485 6                  93130365.007 7  23732221.516
                  23732226.754          39.700                          43.800
 131819864.733 7                  98436935.593 7  25084484.984
                  25084490.930          42.100                          46.800
 124809774.333 7                  93202120.174 7  23750511.789
                  23750517.516          43.900                          47.300
 121288346.495 7                  90572494.001 8  23080403.000
                  23080409.203          46.200                          51.300
 20  7  6  0 15 14.0000000  0 18G08G27R24G30G09R23R13G07R12G11G01G21
                                G16E27E14E13E30E15
 107684400.136 7  83909970.40148  80413716.861 8  20491663.969
  20491671.910    20491671.031          45.500          50.500          53.000
 115452545.090 6  89963060.22445  86214594.892 8  21969890.914
  21969898.641    21969898.328          39.700          30.600          48.300
 118109483.084 6  91862952.706 6                  22087067.531    22087066.418
  22087071.613                          39.400          38.700
 123010259.900 5  95852170.83245  91858326.004 7  23408066.773
  23408075.176    23408074.695          34.500          31.900          43.400
 131195726.233 5 102230437.38143  97970839.542 6  24965720.391
  24965729.336    24965730.430          32.000          20.900          39.200
 104121897.338 7  80983734.778 6                  19464488.672    19464487.688
  19464495.066                          46.600          41.200
 105764124.829 5  82261013.754 6                  19806225.586    19806224.258
  19806230.047                          33.800          41.900
 112605787.343 7  87744734.74147                  21428153.375
  21428159.199                          42.300          44.700
 105936991.727 7  82395484.985 7                  19831631.352    19831631.844
  19831636.242                          45.700          45.900
 107807148.506 7  84005541.51946                  20515002.141
  20515007.117                          44.100          37.400
 117102858.606 6  91249053.91046  87447009.516 7  22283940.500
  22283950.355    22283949.375          39.100          39.400          47.500
 130000975.666 5 101299488.94642                  24738367.102
  24738371.648                          31.000          15.600
 119840746.977 6  93382443.93644                  22804941.969
  22804947.820                          38.400          24.400
 122838099.987 7                  91729771.807 8  23375310.836
                  23375315.684          46.600                          50.800
 124707882.229 6                  93126044.072 7  23731120.281
                  23731125.645          40.200                          43.700
 131817362.268 7                  98435066.873 7  25084008.633
                  25084014.828          42.100                          46.600
 124811400.368 7                  93203334.439 7  23750821.211
                  23750826.887          43.700                          47.500
 121288309.588 7                  90572466.432 8  23080395.805
                  23080402.215          46.000                          51.200
 20  7  6  0 15 15.0000000  0 18G08G27R24G30G09R23R13G07R12G11G01G21
                                G16E27E14E13E30E15
 107685277.751 7  83910654.25248  80414372.213 8  20491831.039
  20491838.789    20491838.086          45.300          50.400          52.900
 115455048.861 6  89965011.22445  86216464.598 8  21970367.945
  21970375.031    21970374.941          40.100          31.000          48.400
 118105939.520 6  91860196.606 6                  22086403.836    22086404.152
  22086409.117                          38.900          38.700
 123007394.317 5  95849937.92045  91856186.113 7  23407521.758
  23407529.551    23407529.500          35.200          31.600          43.900
 131198238.758 5 102232395.19243  97972715.761 6  24966198.148
  24966207.414    24966208.645          31.200          22.800          39.300
 104120525.223 7  80982667.581 6                  19464232.367    19464231.172
  19464238.543                          46.600          41.300
 105761963.920 5  82259333.075 6                  19805820.367    19805819.914
  19805825.477                          33.500          41.900
 112604353.688 7  87743617.60747                  21427880.891
  21427886.461                          42.600          44.700
 105938751.186 7  82396853.443 7                  19831961.367    19831961.227
  19831965.695                          45.700          45.800
 107805541.106 7  84004289.00146                  20514696.492
  20514701.320                          44.300          37.300
 117099303.948 6  91246284.04046  87444355.072 7  22283264.625
  22283273.953    22283272.980          38.900          39.200          47.900
 130004027.980 5 101301867.41042                  24738947.570
  24738952.383                          30.800          16.300
 119843054.450 6  93384241.96444                  22805381.203
  22805386.863                          38.500          24.900
 122837373.276 7                  91729229.123 8  23375172.445
                  23375177.508          47.000                          50.900
 124702095.902 6                  93121723.107 7  23730019.367
                  23730024.465          40.600                          43.900
 131814860.030 7                  98433198.325 7  25083532.805
                  25083538.613          42.300                          46.500
 124813026.650 7                  93204548.835 7  23751130.805
                  23751136.465          44.100                          47.600
 121288273.084 7                  90572439.167 8  23080389.031
                  23080395.238          46.500                          51.000
 20  7  6  0 15 16.0000000  0 18G08G27R24G30G09R23R13G07R12G11G01G21
                                G16E27E14E13E30E15
 107686155.662 7  83911338.33548  80415027.804 8  20491998.273
  20492005.824    20492005.125          45.400          50.300          52.900
 115457552.775 6  89966962.31345  86218334.396 8  21970844.180
  21970851.672    21970851.320          40.100          31.800          48.300
 118102396.395 6  91857440.845 6                  22085741.688    22085741.277
  22085746.559                          38.900          38.300
 123004529.063 5  95847705.25745  91854046.482 7  23406976.219
  23406984.305    23406984.152          35.200          32.000          44.100
 131200751.350 5 102234353.02043  97974592.055 6  24966675.969
  24966685.391    24966686.586          30.800          22.600          39.200
 104119153.854 7  80981600.954 6                  19463975.680    19463974.813
  19463982.137                          46.500          41.300
 105759803.545 5  82257652.773 6                  19805416.891    19805415.438
  19805420.691                          33.100          41.400
 112602920.615 7  87742500.93547                  21427608.172
  21427613.637                          42.500          44.600
 105940511.309 7  82398222.431 7                  19832290.852    19832290.793
  19832295.332                          46.000          45.800
 107803934.210 7  84003036.87246                  20514390.320
  20514395.422                          44.500          37.400
 117095749.577 6  91243514.40846  87441700.851 7  22282587.656
  22282597.473    22282596.453          38.300          39.200          47.600
 130007080.464 5 101304245.90642                  24739527.523
  24739533.070                          31.600          15.600
 119845362.124 6  93386040.14743                  22805820.781
  22805826.004                          37.600          22.300
 122836646.798 7                  91728686.630 8  23375034.242
                  23375039.262          47.000                          50.900
 124696309.656 6                  93117402.220 7  23728917.891
                  23728923.348          40.900                          44.200
 131812358.076 7                  98431329.971 7  25083056.820
                  25083062.508          42.400                          46.300
 124814653.159 7                  93205763.458 7  23751440.016
                  23751445.848          43.900                          47.300
 121288237.030 7                  90572412.247 8  23080382.039
                  23080388.461          46.500                          50.800
 20  7  6  0 15 17.0000000  0 19G08G27R24G30G09R23R13G07R12G11R14G01
                                G21G16E27E14E13E30E15
 107687033.953 7  83912022.71948  80415683.673 8  20492165.109
  20492172.984    20492172.273          45.500          50.300          52.900
 115460056.896 6  89968913.57845  86220204.338 8  21971320.477
  21971328.133    21971327.848          40.100          32.100          48.300
 118098853.660 6  91854685.362 6                  22085078.516    22085078.668
  22085084.043                          39.400          38.400
 123001664.224 5  95845472.91845  91851907.124 7  23406430.664
  23406439.063    23406439.051          34.700          32.200          44.000
 131203263.950 5 102236310.89743  97976468.350 6  24967154.094
  24967163.645    24967164.434          30.500          22.200          39.100
 104117783.222 7  80980534.916 6                  19463719.453    19463718.703
  19463725.934                          46.400          41.000
 105757643.689 5  82255972.915 6                  19805012.617    19805011.102
  19805016.234                          33.700          41.600
 112601488.218 7  87741384.78047                  21427335.555
  21427341.172                          42.400          44.600
 105942272.089 7  82399591.934 7                  19832620.438    19832620.410
  19832624.820                          46.000          45.700
 107802327.912 7  84001785.21546                  20514085.008
  20514089.848                          44.500          37.200
                  98784285.02415                  23826440.836
  23826442.590                                          30.400
 117092195.585 6  91240745.06946  87439046.897 7  22281911.859
  22281921.281    22281920.426          38.700          39.000          47.500
 130010133.260 5 101306624.77042                  24740108.406
  24740113.984                          31.800          14.800
 119847670.063 6  93387838.53944                  22806259.328
  22806265.117                          38.100          25.300
 122835920.601 7                  91728144.343 8  23374896.133
                  23374900.969          47.000                          50.800
 124690523.432 6                  93113081.347 7  23727817.180
                  23727822.199          40.900                          44.000
 131809856.422 7                  98429461.851 7  25082580.406
                  25082586.469          42.300                          46.800
 124816279.976 7                  93206978.291 7  23751749.633
                  23751755.523          44.000                          47.500
 121288201.442 7                  90572385.678 8  23080375.336
                  23080381.625          46.400                          51.000
 20  7  6  0 15 18.0000000  0 19G08G27R24G30G09R23R13G07R12G11R14G01
                                G21G16E27E14E13E30E15
 107687912.559 7  83912707.34748  80416339.766 8  20492332.430
  20492340.246    20492339.496          45.400          50.300          53.000
 115462561.134 6  89970864.93345  86222074.395 8  21971796.984
  21971804.613    21971804.559          39.800          31.500          48.500
 118095311.292 6  91851930.206 6                  22084416.336    22084415.992
  22084421.531                          39.200          38.600
 122998799.701 5  95843240.82245  91849768.061 7  23405885.586
  23405893.789    23405894.047          35.100          31.900          43.900
 131205776.643 5 102238268.83443  97978344.707 6  24967632.750
  24967641.691    24967642.250          30.500          22.900          38.900
 104116413.320 7  80979469.436 6                  19463462.984    19463462.625
  19463469.949                          46.300          41.300
 105755484.376 5  82254293.471 6                  19804609.094    19804606.668
  19804611.887                          33.100          41.500
 112600056.350 7  87740269.02747                  21427062.992
  21427068.625                          42.400          44.600
 105944033.531 7  82400961.938 7                  19832950.336    19832950.059
  19832954.586                          45.700          45.700
 107800722.107 7  84000533.93846                  20513778.656
  20513784.215                          44.300          37.100
                  98781171.755 5                  23825690.992
  23825691.797                                          30.900
 117088641.895 6  91237975.95646  87436393.150 7  22281235.539
  22281245.008    22281244.035          38.300          38.800          47.900
 130013186.210 5 101309003.63642                  24740689.805
  24740694.953                          31.200          15.600
 119849978.183 6  93389637.07243                  22806698.742
  22806704.359                          38.100          23.500
 122835194.661 7                  91727602.235 8  23374757.867
                  23374762.883          46.800                          50.500
 124684737.267 6                  93108760.501 7  23726715.914
                  23726721.313          40.800                          44.300
 131807355.022 7                  98427593.918 7  25082104.570
                  25082110.465          42.400                          46.800
 124817907.022 7                  93208193.282 7  23752059.055
                  23752065.195          44.000                          47.600
 121288166.281 7                  90572359.422 8  23080368.445
                  23080374.879          46.600                          51.200
 20  7  6  0 15 19.0000000  0 19G08G27R24G30G09R23R13G07R12G11R14G01
                                G21G16E27E14E13E30E15
 107688791.476 7  83913392.22148  80416996.102 8  20492499.766
  20492507.480    20492506.727          45.800          50.300          52.500
 115465065.493 6  89972816.38045  86223944.536 8  21972273.477
  21972281.344    21972280.988          40.000          31.600          48.500
 118091769.373 6  91849175.363 6                  22083754.953    22083753.949
  22083759.281                          39.000          38.100
 122995935.563 5  95841009.02845  91847629.248 7  23405340.539
  23405348.848    23405348.914          35.200          31.900          44.100
 131208289.340 5 102240226.79743  97980221.071 6  24968111.703
  24968119.824    24968120.504          31.200          22.900          38.600
 104115044.150 7  80978404.537 6                  19463207.500    19463206.469
  19463214.023                          46.000          41.000
 105753325.653 5  82252614.432 6                  19804204.617    19804202.188
  19804207.641                          33.100          41.400
 112598625.082 7  87739153.75747                  21426790.383
  21426796.230                          42.200          44.700
 105945795.641 7  82402332.469 7                  19833280.516    19833279.969
  19833284.438                          45.700          45.100
 107799116.836 7  83999283.07546                  20513473.680
  20513478.711                          44.400          37.300
                  98778058.394 5                  23824938.383
  23824940.730                                          31.100
 117085088.539 6  91235207.11046  87433739.671 7  22280559.547
  22280568.801    22280567.895          38.600          39.000          47.800
 130016239.323 5 101311382.73142                  24741270.719
  24741276.012                          31.200          14.800
 119852286.479 6  93391435.74644                  22807138.398
  22807143.539                          38.100          24.500
 122834468.949 7                  91727060.309 8  23374619.813
                  23374624.805          47.100                          50.500
 124678951.114 6                  93104439.682 7  23725614.867
                  23725620.270          40.600                          43.800
 131804853.889 7                  98425726.202 7  25081628.664
                  25081634.523          42.700                          47.000
 124819534.324 7                  93209408.476 7  23752368.758
                  23752374.816          43.500                          47.200
 121288131.574 7                  90572333.504 8  23080361.984
                  23080368.289          46.200                          51.100
 20  7  6  0 15 20.0000000  0 19G08G27R24G30G09R23R13G07R12G11R14G01
                                G21G16E27E14E13E30E15
 107689670.705 7  83914077.32848  80417652.665 8  20492667.156
  20492674.773    20492674.008          45.800          50.500          52.400
 115467569.999 6  89974767.94445  86225814.789 8  21972750.250
  21972758.020    21972757.625          40.200          31.100          48.200
 118088227.835 6  91846420.840 6                  22083092.570    22083091.156
  22083097.004                          38.700          38.200
 122993071.759 5  95838777.49145  91845490.709 7  23404796.227
  23404803.891    23404803.988          34.600          32.000          44.300
 131210802.087 5 102242184.75843  97982097.464 6  24968589.516
  24968597.992    24968598.738          30.100          22.300          38.500
 104113675.719 7  80977340.197 6                  19462951.156    19462950.590
  19462958.238                          46.100          40.900
 105751167.427 5  82250935.800 6                  19803799.594    19803797.965
  19803803.305                          33.300          41.500
 112597194.405 7  87738038.93647                  21426518.195
  21426524.039                          42.300          44.700
 105947558.387 7  82403703.492 7                  19833610.344    19833609.988
  19833614.418                          45.600          45.600
 107797512.072 7  83998032.61046                  20513168.453
  20513173.305                          44.100          37.400
                  98774945.135 5                  23824188.102
  23824189.863                                          30.700
 117081535.437 6  91232438.45746  87431086.398 7  22279882.938
  22279892.809    22279891.742          38.400          38.900          47.600
 130019292.538 5 101313761.81742                  24741851.828
  24741857.020                          31.900          14.800
 119854594.996 6  93393234.57844                  22807577.492
  22807582.883                          37.900          24.700
 122833743.490 7                  91726518.575 8  23374481.766
                  23374486.746          46.800                          50.400
 124673164.983 6                  93100118.872 7  23724513.867
                  23724519.234          40.800                          44.100
 131802352.999 7                  98423858.673 7  25081152.828
                  25081158.551          42.400                          47.000
 124821161.865 7                  93210623.845 7  23752678.461
                  23752684.496          43.700                          47.400
 121288097.292 7                  90572307.899 8  23080355.484
                  23080361.766          46.400                          51.200
 20  7  6  0 15 21.0000000  0 19G08G27R24G30G09R23R13G07R12G11R14G01
                                G21G16E27E14E13E30E15
 107690550.237 7  83914762.67448  80418309.461 8  20492834.367
  20492842.184    20492841.406          45.500          50.300          52.300
 115470074.651 6  89976719.62345  86227685.151 8  21973226.758
  21973234.570    21973234.168          40.200          32.100          48.200
 118084686.661 6  91843666.583 6                  22082430.070    22082429.410
  22082434.902                          39.200          38.700
 122990208.361 5  95836546.25845  91843352.437 7  23404251.352
  23404259.012    23404259.141          35.000          32.500          44.300
 131213314.823 5 102244142.74743  97983973.894 6  24969067.367
  24969076.160    24969076.598          30.700          22.000          38.600
 104112307.990 7  80976276.405 6                  19462696.359    19462694.965
  19462702.531                          46.300          41.000
 105749009.762 5  82249257.631 6                  19803394.914    19803393.938
  19803399.324                          33.100          41.700
 112595764.307 7  87736924.57847                  21426246.320
  21426251.988                          42.900          44.700
 105949321.798 7  82405075.033 7                  19833940.313    19833940.008
  19833944.488                          45.900          46.000
 107795907.848 7  83996782.57246                  20512862.688
  20512868.188                          44.200          37.000
                  98771831.756 5                  23823436.797
  23823438.805                                          30.700
 117077982.691 6  91229670.08446  87428433.357 7  22279206.852
  22279216.609    22279215.738          38.100          38.600          47.600
 130022346.001 5 101316141.14942                  24742433.594
  24742438.090                          31.500          16.300
 119856903.663 6  93395033.53543                  22808017.000
  22808022.145                          37.800          22.800
 122833018.247 7                  91725977.001 8  23374343.688
                  23374348.820          46.800                          50.900
 124667378.879 6                  93095798.074 7  23723412.828
                  23723418.059          40.700                          44.000
 131799852.398 7                  98421991.326 7  25080676.813
                  25080682.879          42.600                          47.000
 124822789.640 7                  93211839.396 7  23752988.203
                  23752994.355          43.300                          47.200
 121288063.449 7                  90572282.622 8  23080349.086
                  23080355.313          46.500                          50.900
 20  7  6  0 15 22.0000000  0 19G08G27R24G30G09R23R13G07R12G11R14G01
