     2.11           OBSERVATION DATA    M (MIXED)           RINEX VERSION / TYPE
teqc  2016Nov7      KASI/KOREA          20200706 00:47:35UTCPGM / RUN BY / DATE
Linux 2.4.20-8|Pentium IV|gcc|Linux|486/DX+                 COMMENT
  0.0000      (antenna height)                              COMMENT
 +36.39942714 (latitude)                                    COMMENT
+127.37448264 (longitude)                                   COMMENT
0116.859      (elevation)                                   COMMENT
BIT 2 OF LLI FLAGS DATA COLLECTED UNDER A/S CONDITION       COMMENT
23902M002 (COGO code)                                       COMMENT
DAEJ                                                        MARKER NAME
23902M002                                                   MARKER NUMBER
KASI GPS            KASI/KOREA                              OBSERVER / AGENCY
5412K48145          TRIMBLE NETR9       5.44                REC # / TYPE / VERS
4923363230          TRM59800.00     SCIS                    ANT # / TYPE
 -3120042.4162  4084615.4841  3764027.5245                  APPROX POSITION XYZ
        0.0000        0.0000        0.0000                  ANTENNA: DELTA H/E/N
     1     1                                                WAVELENGTH FACT L1/2
    10    L1    L2    L5    C1    P1    P2    C5    S1    S2# / TYPES OF OBSERV
          S5                                                # / TYPES OF OBSERV
    18                                                      LEAP SECONDS
 SNR is mapped to RINEX snr flag value [0-9]                COMMENT
  L1 & L2: min(max(int(snr_dBHz/6), 0), 9)                  COMMENT
  2020     7     6     0    30    0.0000000     GPS         TIME OF FIRST OBS
                                                            END OF HEADER
 20  7  6  0 30  0.0000000  0 18G08G27R24G30R23R13G07R12G11R14G01G16
                                E27E21E14E13E30E15
 108581562.906 7  84609058.06948  81083675.852 8  20662388.570
  20662396.363    20662395.703          44.100          49.600          52.000
 117721786.283 6  91731299.45944  87909157.336 7  22401713.852
  22401721.488    22401721.430          39.900          29.300          47.300
 115135926.388 6  89550186.832 6                  21530996.781    21530996.391
  21531001.305                          40.900          39.700
 120623552.304 6  93992399.03645  90076044.749 7  22953890.797
  22953898.938    22953899.281          37.300          34.400          44.900
 103191024.541 7  80259723.005 6                  19290471.328    19290470.641
  19290477.797                          46.100          40.900
 104076279.160 5  80948244.910 7                  19490147.570    19490145.352
  19490150.867                          33.700          42.100
 111573993.032 7  86940738.87047                  21231809.430
  21231815.680                          43.000          45.200
 107752515.903 7  83807558.710 7                  20171502.977    20171501.648
  20171506.648                          44.500          45.300
 106592735.062 7  83059245.64446                  20283906.859
  20283911.617                          42.700          37.100
 123472633.653 5  96034166.336 6                  23163118.500    23163117.484
  23163123.992                          33.300          36.700
 114089789.092 7  88901208.04747  85196990.666 8  21710572.398
  21710581.477    21710580.172          42.200          42.400          48.800
 121962616.855 6  95035848.02443                  23208721.758
  23208727.504                          36.800          21.500
 122296188.731 7                  91325097.571 8  23272188.547
                  23272193.723          46.400                          50.500
 137891901.495 6                 102971250.864 7  26239956.391
                  26239961.727          38.900                          42.300
 119605878.807 6                  89316106.944 7  22760240.867
                  22760245.809          41.700                          45.600
 129710958.446 7                  96862103.364 7  24683173.305
                  24683179.184          44.200                          47.500
 126350997.793 7                  94353033.117 7  24043797.227
                  24043803.027          42.400                          46.700
 121426171.012 7                  90675414.833 8  23106630.172
                  23106636.316          46.000                          51.000
 20  7  6  0 30  1.0000000  0 18G08G27R24G30R23R13G07R12G11R14G01G16
                                E27E21E14E13E30E15
 108582703.911 7  84609947.16148  81084527.899 8  20662605.734
  20662613.512    20662612.871          44.100          49.500          51.700
 117724397.915 6  91733334.49144  87911107.577 7  22402210.906
  22402218.566    22402218.566          40.000          28.900          47.000
 115132767.762 6  89547730.137 6                  21530406.711    21530405.875
  21530410.531                          40.900          40.200
 120621042.835 6  93990443.60245  90074170.803 7  22953412.844
  22953421.449    22953421.758          37.300          34.100          45.000
 103190294.575 7  80259155.234 6                  19290334.328    19290334.160
  19290341.551                          46.200          40.500
 104074646.600 5  80946975.147 6                  19489841.727    19489839.535
  19489845.063                          33.700          41.900
 111573105.407 7  86940047.21747                  21231640.813
  21231646.777                          43.000          45.600
 107754850.998 7  83809374.881 7                  20171939.688    20171938.871
  20171943.879                          44.500          45.600
 106591604.624 7  83058364.77746                  20283691.891
  20283696.543                          42.800          36.400
 123468641.048 5  96031060.994 6                  23162369.930    23162368.832
  23162375.031                          33.100          36.200
 114086556.636 6  88898689.25047  85194576.840 8  21709957.422
  21709966.410    21709965.027          41.700          42.400          48.700
 121965098.552 6  95037781.81843                  23209193.773
  23209199.852                          36.700          21.500
 122295697.892 7                  91324731.043 8  23272095.289
                  23272100.348          46.600                          50.700
 137889530.841 6                 102969480.597 7  26239505.164
                  26239510.914          39.100                          42.400
 119600162.885 6                  89311838.585 7  22759152.969
                  22759158.098          41.700                          45.700
 129708711.005 7                  96860425.085 7  24682745.523
                  24682751.547          44.100                          47.500
 126352847.012 7                  94354414.028 7  24044149.313
                  24044155.027          42.200                          46.400
 121426515.521 7                  90675672.093 8  23106695.992
                  23106701.887          45.900                          51.100
 20  7  6  0 30  2.0000000  0 18G08G27R24G30R23R13G07R12G11R14G01G16
                                E27E21E14E13E30E15
 108583845.202 7  84610836.47848  81085380.156 8  20662822.820
  20662830.727    20662829.969          43.900          49.500          51.800
 117727009.677 6  91735369.63244  87913057.919 7  22402708.508
  22402715.508    22402715.398          40.100          29.600          47.100
 115129609.583 6  89545273.780 6                  21529815.609    21529815.168
  21529820.016                          41.100          39.600
 120618533.822 6  93988488.52645  90072297.185 7  22952935.820
  22952944.020    22952944.191          37.400          33.700          45.100
 103189565.313 7  80258588.037 6                  19290198.734    19290198.082
  19290205.273                          46.500          40.500
 104073014.701 5  80945705.890 7                  19489536.164    19489533.883
  19489539.535                          33.900          42.100
 111572218.424 7  86939356.05647                  21231472.070
  21231477.953                          43.200          45.500
 107757186.711 7  83811191.544 7                  20172376.844    20172376.242
  20172381.059                          44.800          45.600
 106590474.754 7  83057484.36646                  20283476.547
  20283481.684                          43.100          36.800
 123464648.515 5  96027955.681 6                  23161620.836    23161619.578
  23161626.168                          33.400          36.200
 114083324.621 6  88896170.79247  85192163.305 8  21709342.531
  21709351.406    21709349.941          41.900          42.400          49.100
 121967580.475 6  95039715.79043                  23209666.352
  23209672.004                          36.700          21.300
 122295207.344 7                  91324364.720 8  23272001.852
                  23272007.055          46.800                          50.900
 137887160.265 6                 102967710.343 7  26239054.008
                  26239059.766          38.400                          42.300
 119594447.158 7                  89307570.317 7  22758065.664
                  22758070.430          42.100                          46.000
 129706463.906 7                  96858747.039 7  24682317.688
                  24682323.910          43.800                          47.400
 126354696.507 7                  94355795.119 7  24044501.141
                  24044506.941          42.700                          46.600
 121426860.459 7                  90675929.671 8  23106761.609
                  23106767.707          45.900                          50.900
 20  7  6  0 30  3.0000000  0 18G08G27R24G30R23R13G07R12G11R14G01G16
                                E27E21E14E13E30E15
 108584986.758 7  84611726.00848  81086232.631 8  20663039.711
  20663047.957    20663047.281          44.200          49.500          51.900
 117729621.549 6  91737404.83644  87915008.327 7  22403205.414
  22403212.504    22403212.383          39.700          29.200          47.600
 115126451.873 6  89542817.782 6                  21529224.656    21529224.609
  21529229.574                          41.200          39.700
 120616025.279 6  93986533.81645  90070423.919 7  22952458.344
  22952466.813    22952466.781          37.200          34.200          45.200
 103188836.771 7  80258021.407 6                  19290062.758    19290061.516
  19290069.094                          46.800          40.400
 104071383.468 5  80944437.181 6                  19489230.141    19489228.273
  19489233.977                          34.100          41.600
 111571332.125 7  86938665.42847                  21231303.234
  21231309.402                          43.000          45.600
 107759523.074 7  83813008.727 7                  20172814.367    20172813.727
  20172818.406                          45.100          45.100
 106589345.435 7  83056604.37646                  20283261.430
  20283266.754                          43.200          37.100
 123460656.072 5  96024850.428 6                  23160871.609    23160870.688
  23160877.293                          33.700          36.500
 114080093.033 7  88893652.66947  85189750.107 8  21708727.523
  21708736.379    21708735.063          42.300          42.800          48.900
 121970062.610 6  95041649.89743                  23210138.914
  23210144.414                          36.800          21.500
 122294717.095 7                  91323998.629 8  23271908.734
                  23271913.695          46.900                          50.500
 137884789.751 6                 102965940.158 7  26238603.125
                  26238608.641          38.400                          42.200
 119588731.539 7                  89303302.173 7  22756977.711
                  22756982.770          42.100                          45.500
 129704217.086 7                  96857069.221 7  24681890.313
                  24681896.313          43.800                          47.100
 126356546.241 7                  94357176.429 7  24044853.320
                  24044858.828          42.700                          46.300
 121427205.821 7                  90676187.585 8  23106827.281
                  23106833.281          46.500                          50.800
 20  7  6  0 30  4.0000000  0 18G08G27R24G30R23R13G07R12G11R14G01G16
                                E27E21E14E13E30E15
 108586128.631 7  84612615.77148  81087085.310 8  20663257.477
  20663265.344    20663264.586          44.000          49.500          52.300
 117732233.514 6  91739440.13644  87916958.832 7  22403702.477
  22403709.496    22403709.484          39.900          29.800          47.500
 115123294.649 6  89540362.175 6                  21528634.969    21528633.859
  21528639.027                          41.000          39.800
 120613517.171 6  93984579.44945  90068550.978 7  22951981.805
  22951989.629    22951989.613          37.300          34.300          45.100
 103188108.961 7  80257455.338 6                  19289926.406    19289925.961
  19289932.977                          46.700          40.400
 104069752.914 5  80943168.925 6                  19488924.430    19488923.035
  19488928.535                          34.100          41.600
 111570446.448 7  86937975.29547                  21231135.070
  21231140.699                          42.700          45.600
 107761860.107 7  83814826.410 7                  20173251.875    20173251.211
  20173255.891                          44.900          45.100
 106588216.662 7  83055724.81446                  20283046.953
  20283051.879                          43.200          36.900
 123456663.624 5  96021745.181 6                  23160123.211    23160121.875
  23160128.355                          33.800          37.000
 114076861.831 6  88891134.85547  85187337.219 8  21708113.031
  21708121.523    21708120.230          41.800          42.400          48.800
 121972544.931 6  95043584.18843                  23210611.844
  23210616.887                          36.900          22.000
 122294227.145 7                  91323632.750 8  23271815.336
                  23271820.547          47.100                          50.600
 137882419.271 6                 102964170.009 7  26238151.992
                  26238157.461          38.500                          42.300
 119583016.052 7                  89299034.112 7  22755890.055
                  22755895.039          42.100                          45.500
 129701970.574 7                  96855391.643 7  24681463.219
                  24681468.914          43.100                          47.200
 126358396.237 7                  94358557.926 7  24045205.328
                  24045210.941          42.400                          46.300
 121427551.599 7                  90676445.791 8  23106893.000
                  23106899.043          46.500                          50.600
 20  7  6  0 30  5.0000000  0 18G08G27R24G30R23R13G07R12G11R14G01G16
                                E27E21E14E13E30E15
 108587270.762 7  84613505.74748  81087938.225 8  20663474.922
  20663482.645    20663481.961          43.900          49.500          52.300
 117734845.584 6  91741475.51744  87918909.411 7  22404199.328
  22404206.629    22404206.555          40.200          29.300          47.500
 115120137.976 6  89537906.970 6                  21528043.273    21528043.375
  21528048.590                          40.900          40.000
 120611009.531 6  93982625.44045  90066678.409 7  22951504.484
  22951512.305    22951512.531          36.800          34.500          45.000
 103187381.894 7  80256889.833 6                  19289790.969    19289789.621
  19289797.012                          46.600          40.200
 104068123.009 5  80941901.279 6                  19488620.070    19488618.168
  19488623.285                          34.200          41.400
 111569561.431 7  86937285.67247                  21230966.508
  21230972.332                          42.900          45.300
 107764197.790 7  83816644.604 7                  20173688.984    20173688.715
  20173693.672                          44.600          44.900
 106587088.475 7  83054845.71046                  20282831.758
  20282837.254                          43.100          36.600
 123452671.259 5  96018640.042 6                  23159373.656    23159372.785
  23159379.379                          33.700          36.800
 114073631.098 6  88888617.39847  85184924.647 8  21707497.227
  21707506.699    21707505.434          41.900          42.300          48.900
 121975027.467 6  95045518.62743                  23211083.820
  23211089.484                          36.200          21.700
 122293737.503 7                  91323267.097 8  23271722.102
                  23271727.328          47.200                          50.500
 137880048.887 6                 102962399.885 7  26237700.867
                  26237706.379          38.600                          42.300
 119577300.719 7                  89294766.175 7  22754802.703
                  22754807.398          42.000                          45.600
 129699724.403 7                  96853714.309 7  24681035.445
                  24681041.309          43.400                          47.400
 126360246.519 7                  94359939.618 7  24045557.648
                  24045563.016          42.400                          46.300
 121427897.825 7                  90676704.348 8  23106958.875
                  23106964.887          46.500                          50.300
 20  7  6  0 30  6.0000000  0 18G08G27R24G30R23R13G07R12G11R14G01G16
                                E27E21E14E13E30E15
 108588413.091 7  84614395.87248  81088791.246 8  20663692.289
  20663699.988    20663699.289          44.000          49.500          51.900
 117737457.690 6  91743510.92144  87920859.993 7  22404696.133
  22404703.602    22404703.676          39.900          29.100          47.300
 115116981.681 6  89535452.059 6                  21527452.508    21527453.074
  21527458.215                          40.900          39.800
 120608502.242 6  93980671.71245  90064806.072 7  22951026.555
  22951035.137    22951035.316          37.100          34.400          44.800
 103186655.439 7  80256324.802 6                  19289655.523    19289654.020
  19289661.141                          46.700          40.800
 104066493.671 5  80940634.004 6                  19488315.016    19488313.020
  19488318.191                          34.000          41.600
 111568676.992 7  86936596.49747                  21230798.313
  21230804.074                          42.200          45.600
 107766535.991 7  83818463.222 7                  20174127.633    20174126.488
  20174131.473                          44.600          45.000
 106585960.746 7  83053966.95646                  20282616.938
  20282622.426                          43.000          36.900
 123448678.904 5  96015534.872 6                  23158625.492    23158623.625
  23158630.410                          33.800          36.300
 114070400.659 6  88886100.17947  85182512.316 8  21706883.078
  21706891.914    21706890.551          41.900          42.200          48.600
 121977510.117 6  95047453.14043                  23211555.492
  23211561.707                          36.700          21.700
 122293248.027 7                  91322901.591 8  23271628.953
                  23271634.199          47.000                          50.300
 137877678.444 6                 102960629.781 7  26237250.063
                  26237255.262          38.500                          42.600
 119571585.436 7                  89290498.263 7  22753715.219
                  22753719.941          42.400                          45.700
 129697478.426 7                  96852037.133 7  24680608.148
                  24680613.918          43.600                          47.500
 126362096.932 7                  94361321.423 7  24045909.484
                  24045915.109          43.100                          46.200
 121428244.378 7                  90676963.119 8  23107025.008
                  23107030.938          46.500                          50.400
 20  7  6  0 30  7.0000000  0 18G08G27R24G30R23R13G07R12G11R14G01G16
                                E27E21E14E13E30E15
 108589555.751 7  84615286.25148  81089644.526 8  20663909.867
  20663917.336    20663916.805          44.100          49.600          51.900
 117740069.957 6  91745546.45344  87922810.685 7  22405193.117
  22405200.754    22405200.691          39.600          29.300          47.500
 115113825.867 6  89532997.560 6                  21526862.609    21526862.777
  21526868.141                          40.500          39.800
 120605995.471 6  93978718.38345  90062934.128 7  22950549.492
  22950558.141    22950558.441          36.900          34.000          44.600
 103185929.777 7  80255760.398 6                  19289518.945    19289518.270
  19289525.590                          47.000          40.600
 104064865.048 5  80939367.327 6                  19488010.813    19488008.230
  19488013.367                          34.000          41.600
 111567793.214 7  86935907.83647                  21230630.422
  21230635.930                          42.600          45.500
 107768874.913 7  83820282.378 7                  20174564.664    20174564.402
  20174569.398                          44.700          45.100
 106584833.596 7  83053088.66446                  20282403.172
  20282408.063                          42.800          37.300
 123444686.728 5  96012429.811 6                  23157876.070    23157875.254
  23157881.379                          33.600          36.500
 114067170.716 6  88883583.33747  85180100.346 8  21706268.258
  21706277.246    21706275.902          41.600          42.300          48.900
 121979993.027 6  95049387.84943                  23212028.438
  23212034.145                          37.100          21.300
 122292758.921 7                  91322536.348 8  23271535.914
                  23271541.102          47.400                          50.900
 137875308.149 6                 102958859.741 6  26236798.844
                  26236804.336          38.700                          41.900
 119565870.357 7                  89286230.505 7  22752627.539
                  22752632.418          42.300                          45.900
 129695232.828 7                  96850360.228 7  24680180.938
                  24680186.770          44.000                          47.600
 126363947.685 7                  94362703.486 7  24046261.945
                  24046267.410          42.800                          46.200
 121428591.411 7                  90677222.276 8  23107091.008
                  23107096.945          46.400                          50.500
 20  7  6  0 30  8.0000000  0 18G08G27R24G30R23R13G07R12G11R14G01G16
                                E27E21E14E13E30E15
 108590698.676 7  84616176.84948  81090498.018 8  20664127.250
  20664134.762    20664134.277          44.000          49.400          52.000
 117742682.240 6  91747581.99044  87924761.467 7  22405689.969
  22405697.965    22405697.930          39.900          29.300          47.700
 115110670.520 6  89530543.402 6                  21526272.492    21526272.871
  21526278.121                          40.600          40.100
 120603489.126 6  93976765.38945  90061062.517 7  22950073.156
  22950081.215    22950081.516          37.600          34.500          45.200
 103185204.830 7  80255196.560 6                  19289383.688    19289382.867
  19289390.105                          46.900          41.100
 104063237.073 5  80938101.081 6                  19487706.383    19487703.223
  19487708.426                          33.600          41.700
 111566910.078 7  86935219.68547                  21230462.430
  21230467.824                          42.000          45.500
 107771214.492 7  83822102.037 7                  20175003.125    20175002.344
  20175007.238                          44.800          45.300
 106583707.015 7  83052210.80046                  20282188.992
  20282193.707                          43.000          37.100
 123440694.518 5  96009324.808 6                  23157126.320    23157125.867
  23157132.309                          33.600          36.400
 114063941.170 6  88881066.80647  85177688.661 8  21705653.625
  21705663.008    21705661.461          41.400          42.500          48.700
 121982476.135 6  95051322.75943                  23212501.242
  23212506.555                          37.300          20.100
 122292270.112 7                  91322171.318 8  23271443.023
                  23271448.066          46.800                          51.200
 137872937.870 6                 102957089.727 7  26236347.852
                  26236353.082          38.500                          42.300
 119560155.381 6                  89281962.846 7  22751540.016
                  22751544.949          41.900                          45.400
 129692987.526 7                  96848683.548 7  24679753.648
                  24679759.301          43.700                          47.700
 126365798.680 7                  94364085.716 7  24046613.891
                  24046619.609          42.600                          46.400
 121428938.849 7                  90677481.732 8  23107157.078
                  23107163.082          46.100                          50.700
 20  7  6  0 30  9.0000000  0 18G08G27R24G30R23R13G07R12G11R14G01G16
                                E27E21E14E13E30E15
 108591841.867 7  84617067.63548  81091351.689 8  20664344.867
  20664352.316    20664351.887          44.000          49.400          52.100
 117745294.713 6  91749617.69044  87926712.326 7  22406186.617
  22406195.020    22406195.117          39.500          28.000          47.400
 115107515.638 6  89528089.599 6                  21525683.023    21525682.914
  21525688.148                          40.800          40.200
 120600983.193 6  93974812.71245  90059191.210 7  22949595.797
  22949604.477    22949604.461          37.400          34.300          45.300
 103184480.599 7  80254633.265 6                  19289248.125    19289247.445
  19289254.805                          46.600          41.100
 104061609.746 5  80936835.413 6                  19487400.711    19487398.406
  19487403.730                          33.400          41.500
 111566027.588 7  86934532.02747                  21230293.836
  21230299.871                          42.100          45.600
 107773554.659 7  83823922.174 7                  20175441.289    20175440.684
  20175445.410                          45.300          45.000
 106582580.975 7  83051333.36846                  20281974.992
  20281979.430                          43.300          36.900
 123436702.389 5  96006219.783 6                  23156379.438    23156376.883
  23156383.457                          33.400          36.200
 114060712.047 6  88878550.61247  85175277.307 8  21705039.273
  21705048.477    21705046.922          41.600          42.500          48.800
 121984959.393 6  95053257.77443                  23212972.773
  23212979.180                          37.300          20.900
 122291781.543 7                  91321806.492 8  23271349.797
                  23271355.098          46.800                          51.200
 137870567.630 6                 102955319.773 7  26235896.680
                  26235902.133          39.200                          42.000
 119554440.541 6                  89277695.259 7  22750452.578
                  22750457.383          41.700                          45.400
 129690742.542 7                  96847007.084 7  24679326.422
                  24679332.148          43.900                          47.900
 126367649.917 7                  94365468.136 7  24046966.055
                  24046971.766          43.100                          46.300
 121429286.703 7                  90677741.495 8  23107223.469
                  23107229.242          45.900                          50.700
 20  7  6  0 30 10.0000000  0 18G08G27R24G30R23R13G07R12G11R14G01G16
                                E27E21E14E13E30E15
 108592985.303 7  84617958.63148  81092205.567 8  20664562.328
  20664569.918    20664569.293          44.300          49.600          52.000
 117747907.265 6  91751653.44844  87928663.226 7  22406684.508
  22406692.270    22406692.289          39.400          29.300          47.500
 115104361.208 6  89525636.157 6                  21525093.094    21525092.816
  21525098.219                          40.900          40.500
 120598477.773 6  93972860.43445  90057320.248 7  22949119.203
  22949127.617    22949127.789          37.200          34.500          45.200
 103183757.066 7  80254070.511 6                  19289112.844    19289112.055
  19289119.520                          46.600          40.900
 104059983.044 5  80935570.201 6                  19487096.508    19487093.539
  19487099.133                          33.100          41.300
 111565145.733 7  86933844.86347                  21230126.328
  21230132.043                          42.200          45.400
 107775895.424 7  83825742.773 7                  20175879.500    20175878.543
  20175883.617                          45.300          44.900
 106581455.464 7  83050456.35146                  20281760.289
  20281765.340                          43.600          37.300
 123432710.271 5  96003114.817 6                  23155630.313    23155628.156
  23155634.590                          33.200          37.100
 114057483.302 6  88876034.70947  85172866.226 8  21704424.852
  21704433.922    21704432.488          41.400          42.300          48.800
 121987442.886 6  95055192.96943                  23213446.234
  23213451.887                          36.900          20.600
 122291293.270 7                  91321441.871 8  23271256.945
                  23271262.309          47.100                          50.800
 137868197.433 6                 102953549.812 7  26235445.688
                  26235451.277          39.300                          42.100
 119548725.829 6                  89273427.775 7  22749364.930
                  22749369.871          41.700                          45.600
 129688497.853 7                  96845330.859 7  24678899.273
                  24678905.031          43.800                          47.700
 126369501.413 7                  94366850.729 7  24047318.344
                  24047324.293          43.000                          46.100
 121429634.967 7                  90678001.553 8  23107289.625
                  23107295.430          46.500                          50.900
 20  7  6  0 30 11.0000000  0 18G08G27R24G30R23R13G07R12G11R14G01G16
                                E27E21E14E13E30E15
 108594129.040 7  84618849.84748  81093059.640 8  20664780.211
  20664787.723    20664787.012          44.300          49.500          51.800
 117750519.867 6  91753689.23644  87930614.210 7  22407181.891
  22407189.438    22407189.371          39.600          29.200          47.400
 115101207.204 6  89523183.045 6                  21524504.594    21524502.742
  21524508.434                          40.400          40.400
 120595972.742 6  93970908.46145  90055449.629 7  22948642.977
  22948650.902    22948651.000          37.500          34.100          45.000
 103183034.251 7  80253508.329 6                  19288977.648    19288976.930
  19288984.473                          46.100          40.900
 104058357.042 5  80934305.494 6                  19486791.484    19486789.254
  19486794.727                          33.700          41.900
 111564264.497 7  86933158.19447                  21229958.680
  21229964.219                          42.400          45.400
 107778236.828 7  83827563.867 7                  20176317.922    20176316.930
  20176321.961                          44.600          45.300
 106580330.502 7  83049579.76246                  20281546.102
  20281551.301                          43.300          37.600
 123428718.197 5  96000009.887 6                  23154881.805    23154879.344
  23154885.953                          33.200          36.800
 114054254.970 6  88873519.11747  85170455.463 8  21703810.523
  21703819.637    21703818.141          41.300          42.300          48.800
 121989926.558 5  95057128.28743                  23213918.375
  23213924.473                          35.800          20.900
 122290805.293 7                  91321077.465 8  23271164.109
                  23271169.316          46.800                          51.000
 137865827.292 6                 102951779.902 7  26234994.547
                  26235000.125          39.400                          42.100
 119543011.258 6                  89269160.409 7  22748277.750
                  22748282.543          41.400                          45.700
 129686253.434 7                  96843654.834 7  24678471.945
                  24678477.961          44.000                          47.800
 126371353.146 7                  94368233.511 7  24047670.633
                  24047676.543          43.200                          46.400
 121429983.635 7                  90678261.930 8  23107355.953
                  23107361.750          46.600                          50.800
 20  7  6  0 30 12.0000000  0 18G08G27R24G30R23R13G07R12G11R14G01G16
                                E27E21E14E13E30E15
 108595273.055 7  84619741.28948  81093913.939 8  20664997.664
  20665005.355    20665004.672          44.100          49.500          51.900
 117753132.617 6  91755725.14644  87932565.281 7  22407679.367
  22407686.656    22407686.520          39.800          29.300          47.400
 115098053.745 6  89520730.354 6                  21523913.859    21523913.086
  21523918.594                          40.400          40.500
 120593468.185 6  93968956.86545  90053579.317 7  22948165.656
  22948174.332    22948174.285          37.300          33.700          45.000
 103182312.161 7  80252946.703 6                  19288842.875    19288841.820
  19288849.426                          45.900          41.200
 104056731.644 5  80933041.305 7                  19486488.125    19486485.125
  19486490.316                          33.300          42.100
 111563383.926 7  86932472.03447                  21229790.742
  21229796.879                          42.600          45.300
 107780578.906 7  83829385.480 7                  20176755.477    20176755.242
  20176760.520                          44.300          45.300
 106579206.113 7  83048703.60646                  20281332.508
  20281337.191                          43.500          36.900
 123424726.271 5  95996905.078 6                  23154132.273    23154130.105
  23154137.109                          33.200          36.700
 114051027.064 6  88871003.86847  85168045.012 8  21703195.953
  21703205.305    21703203.996          41.300          42.500          48.900
 121992410.408 6  95059063.73643                  23214391.414
  23214397.133                          36.100          21.500
 122290317.598 7                  91320713.281 8  23271071.438
                  23271076.574          46.800                          50.800
 137863457.246 6                 102950010.049 6  26234543.797
                  26234549.219          39.400                          41.900
 119537296.801 6                  89264893.119 7  22747190.430
                  22747195.203          41.500                          45.700
 129684009.357 7                  96841979.065 7  24678045.031
                  24678050.895          44.200                          47.800
 126373205.122 7                  94369616.499 7  24048023.266
                  24048028.977          43.400                          46.400
 121430332.758 7                  90678522.627 8  23107422.617
                  23107428.195          46.800                          50.600
 20  7  6  0 30 13.0000000  0 18G08G27R24G30R23R13G07R12G11R14G01G16
                                E27E21E14E13E30E15
 108596417.315 7  84620632.92248  81094768.417 8  20665215.188
  20665223.234    20665222.516          44.000          49.300          52.300
 117755745.362 6  91757761.04644  87934516.378 7  22408176.398
  22408183.906    22408183.781          39.300          28.300          47.500
 115094900.698 6  89518277.980 6                  21523324.164    21523323.488
  21523328.824                          40.500          40.200
 120590963.993 6  93967005.54345  90051709.314 7  22947689.602
  22947697.770    22947697.934          36.600          34.900          44.600
 103181590.735 7  80252385.595 6                  19288707.984    19288707.191
  19288714.547                          45.800          41.200
 104055106.844 5  80931777.557 6                  19486182.516    19486180.395
  19486186.051                          33.200          41.900
 111562503.946 7  86931786.33347                  21229623.672
  21229629.293                          42.600          45.200
 107782921.593 7  83831207.558 7                  20177193.883    20177193.898
  20177198.980                          44.600          44.800
 106578082.200 7  83047827.83446                  20281118.563
  20281123.316                          43.300          37.100
 123420734.330 5  95993800.237 6                  23153382.430    23153381.535
  23153388.188                          33.400          36.100
 114047799.532 6  88868488.90947  85165634.831 8  21702581.984
  21702591.258    21702589.754          41.500          42.500          49.100
 121994894.416 6  95060999.34243                  23214863.664
  23214869.746                          36.000          21.300
 122289830.147 7                  91320349.266 8  23270978.711
                  23270983.789          47.000                          50.900
 137861087.157 6                 102948240.188 7  26234092.844
                  26234098.141          39.200                          42.300
 119531582.478 6                  89260625.931 7  22746103.094
                  22746107.766          41.300                          45.600
 129681765.528 7                  96840303.470 8  24677618.195
                  24677623.875          43.700                          48.000
 126375057.300 7                  94370999.626 7  24048375.414
                  24048381.617          43.500                          46.700
 121430682.232 7                  90678783.589 8  23107488.797
                  23107494.789          46.700                          50.600
 20  7  6  0 30 14.0000000  0 18G08G27R24G30R23R13G07R12G11R14G01G16
                                E27E21E14E13E30E15
 108597561.861 7  84621524.77348  81095623.112 8  20665433.344
  20665440.898    20665440.277          44.400          49.500          51.800
 117758358.283 6  91759797.09044  87936467.570 7  22408673.289
  22408681.160    22408680.918          39.200          28.800          47.400
 115091748.143 6  89515825.988 6                  21522734.547    21522733.867
  21522739.180                          40.600          40.200
 120588460.296 6  93965054.61545  90049839.669 7  22947212.711
  22947221.383    22947221.324          36.600          34.200          44.800
 103180870.032 7  80251825.050 6                  19288572.797    19288572.418
  19288579.906                          45.900          40.900
 104053482.727 5  80930514.375 7                  19485876.906    19485876.547
  19485881.961                          33.600          42.000
 111561624.628 7  86931101.15047                  21229456.094
  21229461.945                          42.600          45.400
 107785264.910 7  83833030.130 7                  20177632.508    20177632.719
  20177637.707                          44.700          45.000
 106576958.872 7  83046952.52046                  20280904.945
  20280909.574                          43.200          37.000
 123416742.520 5  95990695.448 6                  23152634.031    23152632.871
  23152639.422                          33.000          36.800
 114044572.411 6  88865974.26647  85163224.986 8  21701968.234
  21701977.047    21701975.707          41.800          42.600          49.000
 121997378.635 6  95062935.09043                  23215336.008
  23215342.566                          36.300          20.400
 122289342.990 7                  91319985.486 8  23270885.820
                  23270891.105          47.200                          51.000
 137858717.143 6                 102946470.377 7  26233641.492
                  26233647.129          38.900                          42.400
 119525868.274 6                  89256358.825 7  22745015.656
                  22745020.324          41.400                          45.600
 129679522.038 7                  96838628.138 7  24677191.414
                  24677196.910          43.900                          47.700
 126376909.794 7                  94372382.959 7  24048727.953
                  24048734.078          43.500                          46.800
 121431032.147 7                  90679044.900 8  23107555.250
                  23107561.281          46.700                          51.100
 20  7  6  0 30 15.0000000  0 18G08G27R24G30R23R13G07R12G11R14G01G16
                                E27E21E14E13E30E15
 108598706.687 7  84622416.84948  81096478.017 8  20665650.852
  20665658.738    20665658.129          43.800          49.600          51.900
 117760971.281 6  91761833.19244  87938418.833 7  22409170.891
  22409178.293    22409178.246          39.500          29.000          47.000
 115088596.039 6  89513374.369 6                  21522144.336    21522144.484
  21522149.762                          40.300          40.200
 120585957.028 6  93963104.01145  90047970.355 7  22946736.742
  22946744.734    22946745.000          37.000          34.900          45.000
 103180150.063 7  80251265.062 6                  19288437.875    19288437.930
  19288445.332                          46.000          40.700
 104051859.235 5  80929251.676 6                  19485574.445    19485572.609
  19485577.898                          33.700          41.700
 111560745.952 7  86930416.46547                  21229289.586
  21229294.730                          42.200          45.500
 107787608.821 7  83834853.174 7                  20178071.758    20178071.414
  20178076.363                          45.100          45.100
 106575836.086 7  83046077.61846                  20280691.281
  20280695.883                          43.500          37.100
 123412750.688 5  95987590.717 6                  23151883.117    23151883.852
  23151890.633                          32.900          37.000
 114041345.724 6  88863459.96947  85160815.441 8  21701353.836
  21701363.066    21701361.613          41.600          42.500          48.800
 121999863.082 6  95064871.05043                  23215809.195
  23215815.363                          36.400          20.100
 122288856.129 7                  91319621.915 8  23270793.289
                  23270798.441          46.500                          51.000
 137856347.233 6                 102944700.622 7  26233190.469
                  26233196.137          38.100                          42.400
 119520154.184 6                  89252091.827 7  22743928.125
                  22743932.871          41.400                          45.600
 129677278.842 7                  96836953.016 7  24676764.508
                  24676770.051          43.800                          47.400
 126378762.506 7                  94373766.483 7  24049080.633
                  24049086.684          43.300                          46.600
 121431382.474 7                  90679306.500 8  23107622.188
                  23107628.020          46.800                          51.200
 20  7  6  0 30 16.0000000  0 18G08G27R24G30R23R13G07R12G11R14G01G16
                                E27E21E14E13E30E15
 108599851.809 7  84623309.14948  81097333.144 8  20665868.680
  20665876.617    20665876.090          43.900          49.500          52.000
 117763584.418 6  91763869.40244  87940370.201 7  22409667.727
  22409675.594    22409675.414          39.100          28.900          47.200
 115085444.473 6  89510923.127 6                  21521555.148    21521554.797
  21521560.434                          40.200          40.300
 120583454.248 6  93961153.79945  90046101.391 7  22946260.633
  22946268.668    22946268.973          36.800          34.200          45.100
 103179430.831 7  80250705.664 6                  19288304.523    19288303.355
  19288310.867                          45.900          40.400
 104050236.472 5  80927989.501 6                  19485271.500    19485268.836
  19485274.023                          34.100          41.600
 111559867.941 7  86929732.30347                  21229122.281
  21229127.633                          42.700          45.500
 107789953.406 7  83836676.753 7                  20178509.891    20178510.176
  20178515.383                          45.300          45.400
 106574713.906 7  83045203.19246                  20280477.805
  20280482.238                          43.300          37.100
 123408758.986 5  95984486.045 6                  23151135.641    23151134.938
  23151141.793                          33.600          36.800
 114038119.485 6  88860946.01347  85158406.228 8  21700740.188
  21700749.055    21700747.699          41.800          42.600          49.000
 122002347.687 6  95066807.08743                  23216281.719
  23216288.180                          36.900          19.900
 122288369.588 7                  91319258.592 8  23270700.563
                  23270705.918          46.500                          50.800
 137853977.344 6                 102942930.916 7  26232739.203
                  26232745.070          38.600                          42.800
 119514440.294 7                  89247824.955 7  22742840.984
                  22742845.531          42.200                          45.600
 129675035.982 7                  96835278.160 7  24676337.539
                  24676343.172          43.700                          47.500
 126380615.518 7                  94375150.228 7  24049433.141
                  24049439.137          43.300                          46.700
 121431733.264 7                  90679568.464 8  23107688.898
                  23107694.750          46.600                          51.100
 20  7  6  0 30 17.0000000  0 18G08G27R24G30R23R13G07R12G11R14G01G16
                                E27E21E14E13E30E15
 108600997.180 7  84624201.65048  81098188.443 8  20666087.164
  20666094.512    20666093.961          43.700          49.500          51.900
 117766197.593 6  91765905.63744  87942321.606 7  22410164.875
  22410172.781    22410172.734          39.000          28.300          47.100
 115082293.316 6  89508472.253 6                  21520966.156    21520965.758
  21520971.254                          40.300          40.200
 120580951.842 6  93959203.86945  90044232.732 7  22945784.398
  22945792.637    22945792.656          36.600          34.300          45.200
 103178712.282 7  80250146.805 6                  19288170.117    19288168.984
  19288176.531                          45.900          40.200
 104048614.299 5  80926727.808 6                  19484967.070    19484965.043
  19484970.320                          34.000          41.800
 111558990.545 7  86929048.61847                  21228955.992
  21228960.727                          42.500          45.500
 107792298.615 7  83838500.796 7                  20178950.516    20178949.098
  20178954.492                          44.700          45.300
 106573592.223 7  83044329.15346                  20280264.219
  20280268.922                          42.800          37.300
 123404767.342 5  95981381.397 6                  23150388.750    23150386.012
  23150392.848                          33.100          36.800
 114034893.614 7  88858432.35247  85155997.308 8  21700126.734
  21700135.313    21700133.898          42.100          42.600          49.400
 122004832.509 6  95068743.31743                  23216754.719
  23216760.859                          36.900          20.400
 122287883.298 7                  91318895.461 8  23270608.180
                  23270613.371          46.400                          50.800
 137851607.495 6                 102941161.249 7  26232288.328
                  26232294.012          38.500                          42.400
 119508726.505 6                  89243558.157 7  22741753.406
                  22741758.324          41.900                          45.500
 129672793.396 7                  96833603.495 7  24675910.742
                  24675916.473          43.300                          47.400
 126382468.743 7                  94376534.121 7  24049785.875
                  24049791.887          43.000                          46.400
 121432084.436 7                  90679830.695 8  23107755.555
                  23107761.641          46.100                          50.500
 20  7  6  0 30 18.0000000  0 18G08G27R24G30R23R13G07R12G11R14G01G16
                                E27E21E14E13E30E15
 108602142.823 7  84625094.35648  81099043.962 8  20666304.781
  20666312.680    20666312.047          43.500          49.600          52.100
 117768810.939 6  91767942.01244  87944273.104 7  22410662.563
  22410669.961    22410669.957          39.200          28.600          47.000
 115079142.612 6  89506021.698 6                  21520377.547    21520377.043
  21520382.004                          40.600          40.200
 120578449.899 6  93957254.30345  90042364.406 7  22945307.859
  22945316.434    22945316.551          36.800          33.700          45.300
 103177994.471 7  80249588.498 6                  19288036.102    19288034.586
  19288042.379                          46.000          40.600
 104046992.828 5  80925466.659 6                  19484663.172    19484661.574
  19484666.578                          33.500          41.700
 111558113.808 7  86928365.44347                  21228788.133
  21228793.879                          42.700          45.500
 107794644.489 7  83840325.355 7                  20179388.375    20179388.297
  20179393.621                          44.900          45.600
 106572471.087 7  83043455.54246                  20280050.469
  20280055.641                          42.900          36.800
 123400775.708 5  95978276.834 6                  23149639.930    23149637.285
  23149644.086                          32.800          37.600
 114031668.162 7  88855919.01647  85153588.689 8  21699512.547
  21699521.430    21699520.160          42.000          42.400          49.400
 122007317.533 6  95070679.70943                  23217227.734
  23217233.621                          36.900          20.100
 122287397.301 7                  91318532.532 8  23270515.578
                  23270520.898          46.400                          51.000
 137849237.722 6                 102939391.593 7  26231837.648
                  26231843.039          38.900                          42.200
 119503012.853 6                  89239291.467 7  22740666.297
                  22740670.941          41.700                          45.600
 129670551.113 7                  96831929.072 7  24675484.094
                  24675489.813          43.500                          47.400
 126384322.209 7                  94377918.206 7  24050138.289
                  24050144.656          43.200                          46.400
 121432436.028 7                  90680093.240 8  23107822.305
                  23107828.520          46.000                          50.800
 20  7  6  0 30 19.0000000  0 18G08G27R24G30R23R13G07R12G11R14G01G16
                                E27E21E14E13E30E15
 108603288.751 7  84625987.28448  81099899.681 8  20666522.852
  20666530.543    20666530.063          43.800          49.500          52.200
 117771424.331 6  91769978.42344  87946224.678 7  22411159.836
  22411167.344    22411167.367          39.100          28.600          47.200
 115075992.366 6  89503571.499 6                  21519788.164    21519787.563
  21519792.902                          40.500          40.500
 120575948.446 6  93955305.12245  90040496.432 7  22944831.906
  22944840.543    22944840.461          36.800          34.000          44.900
 103177277.382 7  80249030.772 6                  19287901.531    19287900.711
  19287908.410                          45.900          40.600
 104045371.952 5  80924205.991 6                  19484361.039    19484357.773
  19484363.109                          33.800          41.200
 111557237.707 7  86927682.76747                  21228621.672
  21228627.285                          43.100          45.500
 107796990.969 7  83842150.420 7                  20179828.109    20179827.754
  20179832.902                          44.600          45.900
 106571350.497 7  83042582.35646                  20279837.258
  20279842.379                          42.800          36.900
 123396784.157 5  95975172.305 6                  23148890.492    23148888.340
  23148895.281                          33.400          37.900
 114028443.127 6  88853405.99647  85151180.389 8  21698898.352
  21698907.773    21698906.426          41.600          42.500          49.300
 122009802.750 6  95072616.23643                  23217700.953
  23217706.496                          37.100          20.400
 122286911.596 7                  91318169.827 8  23270423.164
                  23270428.352          46.000                          50.900
 137846867.995 6                 102937621.989 7  26231386.320
                  26231392.191          38.800                          42.300
 119497299.327 7                  89235024.881 7  22739578.961
                  22739583.742          42.100                          45.400
 129668309.169 7                  96830254.879 7  24675057.391
                  24675063.090          44.000                          47.400
 126386175.946 7                  94379302.510 7  24050491.156
                  24050497.324          43.100                          46.500
 121432788.030 7                  90680356.113 8  23107889.352
                  23107895.516          46.400                          50.600
 20  7  6  0 30 20.0000000  0 18G08G27R24G30R23R13G07R12G11R14G01G16
                                E27E21E14E13E30E15
 108604434.938 7  84626880.41648  81100755.603 8  20666741.359
  20666748.746    20666748.227          43.700          49.500          52.400
 117774037.822 6  91772014.90144  87948176.319 7  22411657.242
  22411664.691    22411664.652          38.900          29.300          47.000
 115072842.590 6  89501121.689 6                  21519199.492    21519198.406
  21519203.859                          40.300          40.500
 120573447.424 6  93953356.27845  90038628.775 7  22944356.453
  22944364.602    22944364.527          36.700          33.900          45.200
 103176561.023 7  80248473.588 6                  19287767.609    19287767.000
  19287774.367                          45.800          40.900
 104043751.750 5  80922945.838 6                  19484057.063    19484054.141
  19484059.828                          33.500          41.300
 111556362.246 7  86927000.59247                  21228454.406
  21228460.520                          43.000          45.400
 107799338.087 7  83843975.934 7                  20180268.047    20180267.133
  20180272.383                          44.400          45.900
 106570230.472 7  83041709.60446                  20279624.453
  20279629.262                          42.600          36.900
 123392792.697 5  95972067.790 6                  23148139.766    23148139.457
  23148146.625                          33.200          36.900
 114025218.518 6  88850893.32347  85148772.390 8  21698285.258
  21698294.293    21698292.766          41.400          42.700          49.100
 122012288.142 6  95074552.89643                  23218173.734
  23218179.285                          37.400          20.400
 122286426.185 7                  91317807.339 8  23270330.820
                  23270336.059          46.200                          51.300
 137844498.305 6                 102935852.400 7  26230935.586
                  26230941.297          38.500                          42.100
 119491585.947 6                  89230758.389 7  22738491.797
                  22738496.422          41.900                          45.500
 129666067.495 7                  96828580.919 7  24674630.852
                  24674636.621          43.400                          47.400
 126388029.939 7                  94380686.962 7  24050843.859
                  24050850.219          42.700                          46.400
 121433140.459 7                  90680619.291 8  23107956.648
                  23107962.594          46.400                          50.500
 20  7  6  0 30 21.0000000  0 18G08G27R24G30R23R13G07R12G11R14G01G16
                                E27E21E14E13E30E15
 108605581.397 7  84627773.76148  81101611.718 8  20666959.242
  20666966.820    20666966.344          43.800          49.500          51.900
 117776651.406 6  91774051.46944  87950128.017 7  22412154.289
  22412161.984    22412162.000          39.200          28.600          47.100
 115069693.307 6  89498672.242 6                  21518608.852    21518609.727
  21518614.902                          40.600          40.900
 120570946.813 6  93951407.74645  90036761.447 7  22943880.641
  22943888.883    22943888.699          36.800          34.300          45.100
 103175845.357 7  80247916.954 6                  19287633.797    19287633.203
  19287640.535                          45.900          41.500
 104042132.202 5  80921686.180 6                  19483752.797    19483750.578
  19483756.414                          33.500          41.400
 111555487.406 7  86926318.89847                  21228288.438
  21228294.055                          42.600          45.400
 107801685.769 7  83845801.907 7                  20180707.867    20180706.613
  20180711.809                          44.600          45.400
 106569110.950 7  83040837.25946                  20279411.070
  20279416.051                          43.400          36.800
 123388801.225 5  95968963.349 6                  23147391.086    23147390.777
  23147397.836                          32.900          37.000
 114021994.295 6  88848380.94047  85146364.703 8  21697671.078
  21697680.664    21697679.266          41.300          42.800          49.200
 122014773.745 6  95076489.73343                  23218646.203
  23218652.297                          37.100          20.600
 122285941.020 7                  91317445.052 8  23270238.609
                  23270243.824          46.100                          51.200
 137842128.651 6                 102934082.855 7  26230484.563
                  26230490.465          38.300                          42.500
 119485872.684 6                  89226491.984 7  22737404.484
                  22737409.324          41.900                          45.700
 129663826.105 7                  96826907.162 7  24674204.320
                  24674209.957          44.000                          47.600
 126389884.151 7                  94382071.602 7  24051197.008
                  24051203.051          43.300                          46.200
 121433493.274 7                  90680882.752 8  23108023.563
                  23108029.770          46.500                          50.600
 20  7  6  0 30 22.0000000  0 18G08G27R24G30R23R13G07R12G11R14G01G16
                                E27E21E14E13E30E15
 108606728.136 7  84628667.32548  81102468.058 8  20667177.188
  20667185.238    20667184.449          44.200          49.300          52.100
 117779265.115 6  91776088.11944  87952079.809 7  22412651.539
  22412659.262    22412659.348          38.900          29.000          47.100
