     2.11           OBSERVATION DATA    M (MIXED)           RINEX VERSION / TYPE
teqc  2016Nov7      KASI/KOREA          20200706 01:02:30UTCPGM / RUN BY / DATE
Linux 2.4.20-8|Pentium IV|gcc|Linux|486/DX+                 COMMENT
  0.0000      (antenna height)                              COMMENT
 +36.39942714 (latitude)                                    COMMENT
+127.37448264 (longitude)                                   COMMENT
0116.859      (elevation)                                   COMMENT
BIT 2 OF LLI FLAGS DATA COLLECTED UNDER A/S CONDITION       COMMENT
23902M002 (COGO code)                                       COMMENT
DAEJ                                                        MARKER NAME
23902M002                                                   MARKER NUMBER
KASI GPS            KASI/KOREA                              OBSERVER / AGENCY
5412K48145          TRIMBLE NETR9       5.44                REC # / TYPE / VERS
4923363230          TRM59800.00     SCIS                    ANT # / TYPE
 -3120042.7621  4084616.0339  3764027.9709                  APPROX POSITION XYZ
        0.0000        0.0000        0.0000                  ANTENNA: DELTA H/E/N
     1     1                                                WAVELENGTH FACT L1/2
    10    L1    L2    L5    C1    P1    P2    C5    S1    S2# / TYPES OF OBSERV
          S5                                                # / TYPES OF OBSERV
    18                                                      LEAP SECONDS
 SNR is mapped to RINEX snr flag value [0-9]                COMMENT
  L1 & L2: min(max(int(snr_dBHz/6), 0), 9)                  COMMENT
  2020     7     6     0    45    0.0000000     GPS         TIME OF FIRST OBS
                                                            END OF HEADER
 20  7  6  0 45  0.0000000  0 18G08G27R24G30R23R13G07R12G11R14G01G16
                                E27E21E14E13E30E15
 109713406.521 7  85491013.82747  81928883.417 8  20877771.523
  20877779.441    20877778.820          44.200          47.800          51.100
 120106428.401 6  93589461.32344  89689895.617 7  22855497.508
  22855505.289    22855504.641          37.200          26.500          45.600
 112489136.143 6  87491572.678 6                  21036032.406    21036032.020
  21036037.457                          41.900          41.700
 118554745.959 6  92380342.31446  88531157.072 7  22560210.328
  22560218.109    22560218.516          38.500          36.600          46.200
 102819831.786 7  79971017.742 6                  19221081.297    19221079.418
  19221087.102                          45.400          40.900
 102883069.457 5  80020192.781 6                  19266697.531    19266695.770
  19266701.180                          32.600          41.400
 111038242.030 7  86523270.09947                  21129859.914
  21129866.227                          43.500          45.500
 110103619.733 7  85636194.169 7                  20611634.945    20611633.852
  20611639.305                          43.400          44.300
 105797818.745 7  82439830.54946                  20132639.328
  20132643.816                          43.400          36.900
 119916868.268 5  93268572.125 6                  22496064.977    22496064.395
  22496070.141                          35.900          38.100
 111359069.574 7  86773375.09647  83157817.533 8  21190932.758
  21190942.836    21190941.215          43.100          46.000          50.000
 124273555.743 5  96836578.48343                  23648479.461
  23648485.141                          34.600          18.600
 121974427.631 7                  91084821.152 8  23210959.555
                  23210964.980          45.600                          49.600
 135784007.771 6                 101397175.052 7  25838837.164
                  25838842.684          39.900                          43.300
 114530385.527 7                  85525966.419 7  21794406.563
                  21794411.340          43.600                          46.200
 127814876.601 7                  95446198.598 7  24322360.742
                  24322366.348          44.900                          47.200
 128115962.573 6                  95671025.547 7  24379658.797
                  24379665.504          41.400                          44.300
 121900611.922 7                  91029705.073 8  23196913.250
                  23196919.641          46.600                          49.800
 20  7  6  0 45  1.0000000  0 18G08G27R24G30R23R13G07R12G11R14G01G16
                                E27E21E14E13E30E15
 109714774.444 7  85492079.74548  81929904.914 8  20878032.328
  20878039.824    20878039.027          44.300          48.000          51.200
 120109110.089 6  93591550.93544  89691898.169 7  22856006.945
  22856015.516    22856014.828          37.000          26.500          45.700
 112486421.053 7  87489460.948 6                  21035524.672    21035524.770
  21035529.656                          42.600          41.700
 118552669.941 6  92378724.63146  88529606.804 7  22559814.984
  22559823.148    22559823.313          38.300          37.100          46.200
 102819731.749 7  79970939.949 6                  19221061.242    19221060.586
  19221068.445                          45.400          40.800
 102882065.199 5  80019411.736 6                  19266510.398    19266507.563
  19266513.102                          32.600          41.600
 111037943.862 7  86523037.75447                  21129803.398
  21129809.367                          43.600          45.600
 110106501.698 7  85638435.716 7                  20612174.383    20612173.457
  20612178.723                          43.500          44.200
 105797183.855 7  82439335.81746                  20132518.359
  20132523.004                          43.100          36.300
 119912975.456 5  93265544.382 6                  22495334.961    22495334.039
  22495339.922                          35.400          37.700
 111356247.461 7  86771176.05147  83155710.105 8  21190396.289
  21190405.883    21190404.129          43.300          46.000          50.200
 124276208.288 5  96838645.42943                  23648985.086
  23648989.797                          34.900          19.000
 121974208.976 7                  91084657.867 8  23210918.016
                  23210923.344          46.000                          50.000
 135781700.530 6                 101395452.112 7  25838398.047
                  25838403.645          40.200                          43.600
 114524841.225 7                  85521826.199 7  21793351.617
                  21793356.227          43.900                          46.600
 127812914.700 7                  95444733.538 7  24321987.492
                  24321992.852          44.700                          47.400
 128118034.624 6                  95672572.867 7  24380053.344
                  24380059.879          41.800                          44.200
 121901316.964 7                  91030231.563 8  23197047.578
                  23197053.805          46.500                          49.900
 20  7  6  0 45  2.0000000  0 18G08G27R24G30R23R13G07R12G11R14G01G16
                                E27E21E14E13E30E15
 109716142.568 7  85493145.81247  81930926.553 8  20878292.188
  20878300.016    20878299.414          44.400          47.800          51.300
 120111791.818 6  93593640.60144  89693900.761 7  22856518.227
  22856525.828    22856525.152          37.100          26.400          45.800
 112483706.433 7  87487349.567 7                  21035017.148    21035016.820
  21035021.992                          42.700          42.100
 118550594.448 6  92377107.36146  88528056.916 7  22559419.945
  22559428.109    22559428.520          38.600          37.100          46.100
 102819632.389 7  79970862.659 6                  19221043.180    19221042.055
  19221049.785                          45.200          41.000
 102881061.770 5  80018631.242 6                  19266321.922    19266319.941
  19266325.117                          33.000          41.800
 111037646.349 7  86522805.92147                  21129746.664
  21129752.707                          43.400          45.700
 110109384.222 7  85640677.665 7                  20612713.828    20612713.285
  20612718.336                          43.700          44.100
 105796549.481 7  82438841.50246                  20132397.266
  20132402.465                          43.200          37.000
 119909082.816 5  93262516.732 6                  22494603.789    22494603.559
  22494609.496                          35.500          38.300
 111353425.826 7  86768977.37047  83153603.051 8  21189859.438
  21189868.848    21189867.195          43.400          46.000          50.200
 124278860.986 5  96840712.45243                  23649488.891
  23649494.504                          34.700          18.300
 121973990.637 7                  91084494.819 8  23210876.352
                  23210881.848          45.900                          49.700
 135779393.360 6                 101393729.212 7  25837959.000
                  25837964.578          39.800                          43.500
 114519297.184 7                  85517686.172 7  21792296.523
                  21792301.098          43.800                          46.500
 127810953.104 7                  95443268.713 7  24321613.828
                  24321619.848          44.600                          47.400
 128120106.911 6                  95674120.349 7  24380447.750
                  24380454.137          41.700                          44.100
 121902022.366 7                  91030758.327 8  23197181.852
                  23197187.984          46.400                          49.800
 20  7  6  0 45  3.0000000  0 18G08G27R24G30R23R13G07R12G11R14G01G16
                                E27E21E14E13E30E15
 109717510.897 7  85494212.03947  81931948.379 8  20878552.578
  20878560.492    20878559.867          44.600          47.900          51.600
 120114473.629 6  93595730.33644  89695903.413 7  22857027.961
  22857036.211    22857035.504          37.400          27.400          45.800
 112480992.343 7  87485238.606 7                  21034509.539    21034509.512
  21034514.352                          43.100          42.000
 118548519.454 6  92375490.49346  88526507.412 7  22559024.539
  22559033.258    22559033.566          38.400          37.200          46.400
 102819533.689 7  79970785.906 6                  19221024.453    19221023.547
  19221031.301                          45.200          41.000
 102880059.034 5  80017851.381 6                  19266133.656    19266131.793
  19266137.355                          33.200          41.600
 111037349.494 7  86522574.60047                  21129690.422
  21129696.332                          43.300          45.600
 110112267.323 7  85642920.087 7                  20613254.078    20613253.270
  20613258.043                          43.500          44.400
 105795915.698 7  82438347.64446                  20132276.813
  20132282.039                          43.600          36.800
 119905190.267 6  93259489.238 6                  22493874.188    22493873.371
  22493879.359                          36.100          38.400
 111350604.692 7  86766779.07947  83151496.356 8  21189322.211
  21189332.051    21189330.461          43.600          45.800          50.000
 124281513.906 5  96842779.64243                  23649993.828
  23649999.461                          34.600          19.600
 121973772.600 7                  91084332.008 8  23210834.953
                  23210840.379          46.200                          50.000
 135777086.285 6                 101392006.399 7  25837519.633
                  25837525.430          39.600                          43.500
 114513753.386 7                  85513546.311 7  21791241.297
                  21791246.219          43.500                          46.600
 127808991.831 7                  95441804.112 7  24321240.617
                  24321246.453          44.200                          47.600
 128122179.435 6                  95675667.993 7  24380842.156
                  24380848.609          41.800                          43.600
 121902728.151 7                  91031285.373 8  23197316.109
                  23197322.332          46.100                          50.100
 20  7  6  0 45  4.0000000  0 18G08G27R24G30R23R13G07R12G11R14G01G16
                                E27E21E14E13E30E15
 109718879.524 7  85495278.49847  81932970.385 8  20878812.945
  20878820.953    20878820.203          44.500          47.900          51.600
 120117155.457 6  93597820.04844  89697906.102 7  22857538.359
  22857546.473    22857545.977          37.200          26.000          45.800
 112478278.815 7  87483128.095 6                  21034002.078    21034002.324
  21034006.938                          42.600          41.700
 118546445.014 6  92373874.04646  88524958.317 7  22558630.102
  22558638.469    22558638.832          38.200          36.900          46.200
 102819435.717 7  79970709.703 6                  19221005.406    19221005.484
  19221013.086                          45.500          40.500
 102879057.052 5  80017072.065 6                  19265944.234    19265944.109
  19265949.609                          33.100          41.500
 111037053.334 7  86522343.83047                  21129633.992
  21129639.953                          42.900          45.600
 110115151.059 7  85645162.987 7                  20613793.141    20613793.086
  20613797.934                          43.600          43.900
 105795282.467 7  82437854.22146                  20132156.156
  20132161.398                          43.600          36.900
 119901297.961 5  93256461.874 6                  22493143.953    22493143.270
  22493149.043                          35.700          37.700
 111347784.082 7  86764581.20847  83149390.064 8  21188785.625
  21188795.180    21188793.789          43.200          45.700          50.100
 124284166.973 5  96844846.96043                  23650499.594
  23650504.391                          34.700          18.600
 121973554.900 7                  91084169.439 8  23210793.633
                  23210798.867          46.200                          49.800
 135774779.285 6                 101390283.653 7  25837080.992
                  25837086.480          39.200                          43.300
 114508209.856 7                  85509406.673 7  21790186.469
                  21790191.066          43.100                          46.400
 127807030.911 7                  95440339.804 7  24320867.352
                  24320873.328          44.000                          47.500
 128124252.232 6                  95677215.858 7  24381236.758
                  24381242.875          41.800                          43.700
 121903434.358 7                  91031812.720 8  23197450.586
                  23197456.727          46.300                          50.300
 20  7  6  0 45  5.0000000  0 18G08G27R24G30R23R13G07R12G11R14G01G16
                                E27E21E14E13E30E15
 109720248.337 7  85496345.11047  81933992.560 8  20879073.742
  20879081.387    20879080.711          44.500          47.800          51.100
 120119837.399 6  93599909.87644  89699908.833 7  22858048.125
  22858056.867    22858056.230          37.400          27.000          45.600
 112475565.777 7  87481017.967 6                  21033494.492    21033494.652
  21033499.523                          42.600          41.600
 118544371.097 6  92372258.00046  88523409.620 7  22558235.484
  22558243.922    22558244.152          37.800          36.900          46.200
 102819338.414 7  79970634.014 6                  19220988.242    19220987.086
  19220994.914                          45.200          40.500
 102878055.818 5  80016293.315 6                  19265757.570    19265756.504
  19265762.195                          33.100          41.400
 111036757.864 7  86522113.59447                  21129578.141
  21129583.684                          43.000          45.600
 110118035.367 7  85647406.324 7                  20614333.523    20614333.012
  20614337.945                          43.900          43.800
 105794649.773 7  82437361.20546                  20132036.273
  20132040.910                          43.300          36.700
 119897405.774 5  93253434.645 6                  22492413.875    22492413.363
  22492418.855                          35.900          37.700
 111344963.975 7  86762383.72047  83147284.141 8  21188249.070
  21188258.633    21188257.016          43.200          45.900          50.000
 124286820.281 5  96846914.46843                  23651003.656
  23651009.344                          34.600          19.000
 121973337.531 7                  91084007.113 8  23210752.195
                  23210757.555          46.400                          49.800
 135772472.427 6                 101388560.975 7  25836642.297
                  25836647.484          39.400                          42.700
 114502666.594 7                  85505267.205 7  21789131.406
                  21789136.199          43.000                          46.000
 127805070.315 7                  95438875.728 7  24320494.742
                  24320500.352          44.300                          47.300
 128126325.229 6                  95678763.891 7  24381631.047
                  24381637.137          41.600                          43.600
 121904140.901 7                  91032340.353 8  23197585.094
                  23197591.215          46.300                          49.800
 20  7  6  0 45  6.0000000  0 18G08G27R24G30R23R13G07R12G11R14G01G16
                                E27E21E14E13E30E15
 109721617.399 7  85497411.91448  81935014.911 8  20879333.242
  20879341.949    20879341.344          44.300          48.000          51.200
 120122519.393 6  93601999.73644  89701911.620 7  22858558.859
  22858567.410    22858566.547          37.700          26.000          45.800
 112472853.240 7  87478908.218 6                  21032987.820    21032987.527
  21032992.301                          42.600          41.800
 118542297.683 6  92370642.35346  88521861.311 7  22557840.492
  22557849.297    22557849.383          38.300          37.100          46.400
 102819241.788 7  79970558.855 6                  19220970.336    19220969.105
  19220976.813                          45.400          40.600
 102877055.346 5  80015515.148 6                  19265571.297    19265569.273
  19265574.828                          33.500          41.400
 111036463.032 7  86521883.84747                  21129521.594
  21129527.621                          42.800          45.600
 110120920.244 7  85649650.121 7                  20614873.648    20614873.246
  20614877.996                          43.600          43.500
 105794017.654 7  82436868.64846                  20131915.547
  20131920.680                          43.100          36.700
 119893513.784 5  93250407.511 6                  22491683.617    22491682.727
  22491688.605                          35.800          38.100
 111342144.365 7  86760186.62647  83145178.582 8  21187712.875
  21187722.176    21187720.488          43.100          46.000          50.100
 124289473.734 5  96848982.12543                  23651509.195
  23651514.156                          34.600          18.300
 121973120.477 7                  91083845.031 8  23210710.906
                  23210716.297          46.600                          50.300
 135770165.639 6                 101386838.388 7  25836203.063
                  25836208.504          39.400                          43.500
 114497123.573 7                  85501127.950 7  21788076.602
                  21788081.449          43.200                          46.400
 127803110.048 7                  95437411.896 7  24320121.609
                  24320127.332          44.300                          47.700
 128128398.489 6                  95680312.109 7  24382025.625
                  24382031.652          41.400                          43.900
 121904847.865 7                  91032868.267 8  23197719.445
                  23197725.719          46.400                          50.200
 20  7  6  0 45  7.0000000  0 18G08G27R24G30R23R13G07R12G11R14G01G16
                                E27E21E14E13E30E15
 109722986.693 7  85498478.89447  81936037.424 8  20879594.102
  20879602.328    20879601.895          44.500          47.700          51.200
 120125201.409 6  93604089.62744  89703914.443 7  22859068.563
  22859077.715    22859077.133          37.700          25.500          45.800
 112470141.241 7  87476798.882 6                  21032480.633    21032480.223
  21032485.215                          42.600          40.900
 118540224.837 6  92369027.14746  88520313.367 7  22557445.836
  22557454.848    22557455.059          38.100          36.600          46.400
 102819145.820 7  79970484.218 6                  19220951.898    19220950.844
  19220958.797                          45.700          40.700
 102876055.539 5  80014737.577 6                  19265383.773    19265382.094
  19265387.664                          32.900          41.200
 111036168.848 7  86521654.61847                  21129465.398
  21129471.648                          43.000          45.400
 110123805.711 7  85651894.383 7                  20615414.203    20615413.301
  20615418.176                          43.900          43.400
 105793386.066 7  82436376.49846                  20131796.039
  20131800.477                          43.400          36.600
 119889622.021 5  93247380.567 6                  22490952.961    22490952.688
  22490958.414                          35.700          37.500
 111339325.217 7  86757989.89247  83143073.393 8  21187176.391
  21187185.625    21187184.027          43.200          45.900          50.100
 124292127.359 5  96851049.86243                  23652014.492
  23652019.051                          33.700          18.600
 121972903.745 7                  91083683.171 8  23210669.703
                  23210674.898          46.800                          49.700
 135767858.941 6                 101385115.855 7  25835764.148
                  25835769.496          39.400                          43.600
 114491580.814 7                  85496988.873 7  21787021.680
                  21787026.766          43.100                          46.200
 127801150.125 7                  95435948.306 7  24319748.383
                  24319754.344          44.300                          47.400
 128130472.005 6                  95681860.502 7  24382420.109
                  24382426.191          41.400                          44.000
 121905555.197 7                  91033396.487 8  23197854.227
                  23197860.324          46.400                          49.800
 20  7  6  0 45  8.0000000  0 18G08G27R24G30R23R13G07R12G11R14G01G16
                                E27E21E14E13E30E15
 109724356.176 7  85499546.02147  81937060.101 8  20879855.117
  20879863.160    20879862.410          44.500          47.800          51.000
 120127883.517 6  93606179.59344  89705917.296 7  22859579.844
  22859588.219    22859587.480          37.700          26.700          46.000
 112467429.752 7  87474689.931 6                  21031973.711    21031973.332
  21031978.168                          42.500          41.200
 118538152.435 6  92367412.28846  88518765.827 7  22557052.531
  22557060.348    22557060.598          37.500          36.900          46.300
 102819050.518 7  79970410.103 6                  19220935.164    19220933.074
  19220941.027                          45.200          40.700
 102875056.543 5  80013960.518 6                  19265194.688    19265194.613
  19265200.527                          32.600          41.200
 111035875.346 7  86521425.91647                  21129410.234
  21129415.848                          43.500          45.600
 110126691.724 7  85654139.053 7                  20615954.328    20615953.516
  20615958.398                          43.700          43.500
 105792755.010 7  82435884.77046                  20131675.523
  20131680.391                          43.400          36.600
 119885730.312 5  93244353.720 6                  22490222.609    22490222.469
  22490228.391                          35.900          37.900
 111336506.608 7  86755793.57547  83140968.569 8  21186639.992
  21186649.285    21186647.574          43.200          45.900          50.100
 124294781.189 5  96853117.78843                  23652518.258
  23652524.027                          33.900          18.600
 121972687.296 7                  91083521.558 8  23210628.477
                  23210633.848          46.700                          49.700
 135765552.306 6                 101383393.387 7  25835325.344
                  25835330.594          39.500                          43.600
 114486038.295 7                  85492849.981 7  21785967.414
                  21785971.934          43.500                          45.900
 127799190.514 7                  95434484.951 7  24319375.539
                  24319381.387          44.600                          47.400
 128132545.729 6                  95683409.085 7  24382814.820
                  24382820.629          41.500                          44.300
 121906262.903 7                  91033924.956 8  23197988.633
                  23197994.992          46.600                          49.800
 20  7  6  0 45  9.0000000  0 18G08G27R24G30R23R13G07R12G11R14G01G16
                                E27E21E14E13E30E15
 109725725.928 7  85500613.36747  81938082.967 8  20880115.859
  20880123.734    20880123.141          44.500          47.800          51.200
 120130565.683 6  93608269.57544  89707920.191 7  22860090.547
  22860098.500    22860097.895          37.800          26.500          45.800
 112464718.821 7  87472581.424 6                  21031466.281    21031466.551
  21031471.273                          42.200          41.400
 118536080.588 6  92365797.86346  88517218.665 7  22556658.547
  22556666.113    22556666.543          38.100          36.800          46.200
 102818955.906 7  79970336.510 6                  19220917.648    19220915.500
  19220923.504                          45.200          40.900
 102874058.218 5  80013184.088 6                  19265008.328    19265008.148
  19265013.594                          32.500          41.200
 111035582.493 7  86521197.71947                  21129354.250
  21129360.027                          43.300          45.800
 110129578.304 7  85656384.174 7                  20616494.766    20616494.094
  20616498.723                          44.100          43.500
 105792124.514 7  82435393.47746                  20131555.258
  20131560.297                          42.700          36.400
 119881838.815 6  93241326.988 6                  22489493.188    22489492.504
  22489498.281                          36.200          37.600
 111333688.477 7  86753597.62647  83138864.128 8  21186103.781
  21186112.770    21186111.395          43.500          45.900          50.200
 124297435.241 5  96855185.87843                  23653022.844
  23653029.215                          34.600          18.300
 121972471.209 7                  91083360.176 8  23210587.430
                  23210592.676          46.500                          50.200
 135763245.792 6                 101381670.978 7  25834886.336
                  25834891.762          39.800                          43.700
 114480496.048 7                  85488711.293 7  21784912.508
                  21784917.336          43.400                          46.000
 127797231.238 7                  95433021.879 7  24319002.867
                  24319008.492          44.300                          47.600
 128134619.731 6                  95684957.824 7  24383209.352
                  24383215.406          41.700                          44.200
 121906970.994 7                  91034453.725 8  23198123.461
                  23198129.828          46.700                          50.100
 20  7  6  0 45 10.0000000  0 18G08G27R24G30R23R13G07R12G11R14G01G16
                                E27E21E14E13E30E15
 109727095.884 7  85501680.86047  81939105.994 8  20880376.273
  20880384.391    20880383.711          44.300          47.900          51.100
 120133247.909 6  93610359.62344  89709923.160 7  22860599.680
  22860608.859    22860608.242          37.800          26.100          45.700
 112462008.371 7  87470473.294 6                  21030960.180    21030959.445
  21030964.355                          42.100          41.700
 118534009.245 6  92364183.83346  88515671.880 7  22556264.102
  22556271.969    22556272.152          38.300          36.500          46.300
 102818861.970 7  79970263.457 6                  19220899.148    19220898.008
  19220905.906                          45.300          40.900
 102873060.690 5  80012408.226 6                  19264822.180    19264821.234
  19264826.754                          32.600          40.900
 111035290.335 7  86520970.06247                  21129298.367
  21129304.418                          43.200          45.600
 110132465.482 7  85658629.747 7                  20617034.953    20617034.633
  20617039.070                          44.200          43.900
 105791494.592 7  82434902.62446                  20131435.422
  20131440.527                          42.800          36.900
 119877947.486 6  93238300.425 6                  22488762.883    22488762.422
  22488768.289                          36.100          37.900
 111330870.864 7  86751402.08447  83136760.063 8  21185567.742
  21185576.547    21185575.090          43.700          46.000          50.000
 124300089.450 5  96857254.08143                  23653528.430
  23653534.203                          33.400          19.000
 121972255.429 7                  91083199.048 8  23210546.406
                  23210551.621          46.400                          49.600
 135760939.407 6                 101379948.647 7  25834447.227
                  25834452.793          39.900                          43.900
 114474954.018 7                  85484572.788 7  21783858.156
                  21783862.789          43.400                          46.500
 127795272.282 7                  95431559.020 7  24318629.930
                  24318635.848          44.500                          47.300
 128136693.969 6                  95686506.787 7  24383604.094
                  24383610.219          41.900                          43.800
 121907679.477 7                  91034982.786 8  23198258.414
                  23198264.578          46.800                          49.700
 20  7  6  0 45 11.0000000  0 18G08G27R24G30R23R13G07R12G11R14G01G16
                                E27E21E14E13E30E15
 109728466.055 7  85502748.52048  81940129.158 8  20880636.883
  20880645.117    20880644.598          43.800          48.000          51.600
 120135930.150 6  93612449.67344  89711926.136 7  22861110.906
  22861119.277    22861118.695          37.600          24.800          45.800
 112459298.382 6  87468365.539 6                  21030453.141    21030452.664
  21030457.598                          41.900          41.600
 118531938.434 6  92362570.21046  88514125.483 7  22555870.180
  22555877.762    22555878.137          38.500          37.400          46.300
 102818768.724 7  79970190.913 6                  19220881.602    19220880.637
  19220888.523                          45.600          41.300
 102872063.885 5  80011632.919 6                  19264636.375    19264634.516
  19264640.043                          32.800          41.300
 111034998.788 7  86520742.87847                  21129243.031
  21129249.051                          43.100          45.700
 110135353.213 7  85660875.755 7                  20617574.781    20617575.121
  20617579.625                          44.500          43.900
 105790865.201 7  82434412.19746                  20131316.094
  20131320.594                          42.400          36.800
 119874056.323 5  93235273.944 6                  22488032.750    22488032.473
  22488038.293                          35.900          38.200
 111328053.697 7  86749206.89647  83134656.338 8  21185031.063
  21185040.488    21185038.996          43.500          45.800          50.000
 124302743.816 5  96859322.41843                  23654034.203
  23654039.262                          34.000          18.300
 121972039.933 7                  91083038.121 8  23210505.445
                  23210510.586          46.600                          49.900
 135758633.023 6                 101378226.387 7  25834008.594
                  25834014.004          40.100                          43.700
 114469412.278 7                  85480434.451 7  21782803.516
                  21782808.039          43.100                          47.000
 127793313.646 7                  95430096.401 7  24318257.438
                  24318263.086          44.700                          47.700
 128138768.421 6                  95688055.877 7  24383999.117
                  24384004.695          41.600                          43.800
 121908388.301 7                  91035512.100 8  23198393.328
                  23198399.426          47.100                          49.900
 20  7  6  0 45 12.0000000  0 18G08G27R24G30R23R13G07R12G11R14G01G16
                                E27E21E14E13E30E15
 109729836.464 7  85503816.38147  81941152.530 8  20880897.898
  20880905.801    20880905.316          44.100          47.800          51.100
 120138612.478 6  93614539.80144  89713929.162 7  22861621.539
  22861629.719    22861629.117          37.100          26.500          46.000
 112456588.966 7  87466258.224 6                  21029946.031    21029945.953
  21029950.828                          42.200          41.600
 118529868.135 6  92360956.99346  88512579.492 7  22555475.672
  22555483.734    22555484.086          38.600          36.500          46.300
 102818676.158 7  79970118.927 6                  19220864.563    19220863.168
  19220871.309                          45.800          41.700
 102871067.840 5  80010858.215 6                  19264450.734    19264447.996
  19264453.410                          33.100          41.800
 111034707.933 7  86520516.23647                  21129187.695
  21129193.492                          43.200          45.700
 110138241.560 7  85663122.261 7                  20618116.539    20618115.750
  20618120.324                          44.300          43.700
 105790236.374 6  82433922.20146                  20131196.281
  20131201.059                          41.600          36.800
 119870165.296 6  93232247.610 6                  22487303.063    22487302.445
  22487308.332                          36.000          38.000
 111325237.074 7  86747012.11847  83132553.021 8  21184495.094
  21184504.684    21184503.086          43.400          46.000          50.000
 124305398.369 5  96861390.89542                  23654538.289
  23654544.371                          33.700          17.800
 121971824.779 7                  91082877.460 8  23210464.297
                  23210469.727          46.400                          50.000
 135756326.775 6                 101376504.163 7  25833569.633
                  25833575.031          39.700                          43.500
 114463870.768 7                  85476296.314 7  21781748.922
                  21781753.715          43.300                          47.000
 127791355.337 7                  95428634.029 7  24317884.563
                  24317890.531          44.800                          47.900
 128140843.115 6                  95689605.189 7  24384393.820
                  24384399.605          41.500                          43.800
 121909097.523 7                  91036041.728 8  23198528.070
                  23198534.496          46.600                          49.800
 20  7  6  0 45 13.0000000  0 18G08G27R24G30R23R13G07R12G11R14G01G16
                                E27E21E14E13E30E15
 109731207.084 7  85504884.38847  81942176.042 8  20881158.703
  20881166.766    20881166.148          43.900          47.800          51.100
 120141294.821 6  93616629.92944  89715932.207 7  22862131.531
  22862140.000    22862139.785          38.000          26.000          46.000
 112453880.073 7  87464151.287 6                  21029439.859    21029439.305
  21029444.309                          42.300          41.700
 118527798.331 6  92359344.16046  88511033.851 7  22555082.055
  22555089.977    22555090.234          38.800          37.100          46.400
 102818584.243 7  79970047.438 6                  19220847.180    19220846.227
  19220854.047                          45.500          41.600
 102870072.483 5  80010084.051 6                  19264263.070    19264261.855
  19264267.078                          33.200          41.900
 111034417.743 7  86520290.11547                  21129132.047
  21129138.270                          43.400          45.600
 110141130.491 7  85665369.198 7                  20618656.539    20618656.539
  20618661.137                          44.200          43.800
 105789608.049 7  82433432.59846                  20131075.766
  20131081.422                          42.200          36.400
 119866274.495 5  93229221.404 6                  22486573.656    22486572.695
  22486578.336                          35.400          38.400
 111322420.927 7  86744817.71647  83130450.038 8  21183959.688
  21183968.527    21183967.020          43.500          46.100          50.100
 124308053.072 5  96863459.50742                  23655043.797
  23655049.539                          33.800          17.400
 121971609.934 7                  91082717.022 8  23210423.516
                  23210428.656          46.500                          50.100
 135754020.579 6                 101374782.023 7  25833130.773
                  25833136.137          39.600                          43.500
 114458329.514 7                  85472158.354 7  21780694.789
                  21780699.055          43.200                          46.800
 127789397.358 7                  95427171.901 8  24317511.953
                  24317517.797          44.900                          48.200
 128142918.050 6                  95691154.645 7  24384788.664
                  24384794.434          41.800                          43.900
 121909807.126 7                  91036571.617 8  23198663.219
                  23198669.395          46.600                          49.900
 20  7  6  0 45 14.0000000  0 18G08G27R24G30R23R13G07R12G11R14G01G16
                                E27E21E14E13E30E15
 109732577.983 7  85505952.61847  81943199.761 8  20881419.813
  20881427.668    20881427.012          44.500          47.900          51.000
 120143977.274 6  93618720.16044  89717935.344 7  22862642.453
  22862650.379    22862650.188          37.500          26.700          46.100
 112451171.700 7  87462044.788 6                  21028933.281    21028933.172
  21028937.953                          42.300          41.800
 118525729.093 6  92357731.76046  88509488.627 7  22554687.977
  22554696.152    22554696.453          39.200          36.500          46.300
 102818493.035 7  79969976.503 6                  19220829.805    19220828.727
  19220836.949                          45.000          41.400
 102869077.955 5  80009310.504 6                  19264077.250    19264076.102
  19264080.883                          33.100          41.700
 111034128.242 7  86520064.52947                  21129077.641
  21129083.207                          43.600          45.600
 110144019.969 7  85667616.574 7                  20619197.773    20619197.410
  20619202.008                          44.000          43.900
 105788980.330 7  82432943.46546                  20130957.039
  20130961.965                          42.400          36.400
 119862383.828 5  93226195.318 6                  22485844.766    22485842.355
  22485848.523                          35.100          37.900
 111319605.293 7  86742623.71647  83128347.469 8  21183423.641
  21183432.852    21183431.238          43.400          45.900          49.800
 124310708.088 5  96865528.34442                  23655548.781
  23655554.516                          34.000          17.400
 121971395.443 7                  91082556.840 8  23210382.633
                  23210387.910          46.500                          49.700
 135751714.518 6                 101373059.971 7  25832692.031
                  25832697.309          39.800                          43.400
 114452788.545 7                  85468020.623 7  21779640.320
                  21779644.898          43.100                          46.400
 127787439.725 7                  95425710.035 7  24317139.445
                  24317145.285          44.700                          47.700
 128144993.263 6                  95692704.316 7  24385183.711
                  24385189.266          41.600                          44.000
 121910517.141 7                  91037101.827 8  23198798.375
                  23198804.496          46.600                          49.700
 20  7  6  0 45 15.0000000  0 18G08G27R24G30R23R13G07R12G11R14G01G16
                                E27E21E14E13E30E15
 109733949.129 7  85507021.05147  81944223.651 8  20881681.070
  20881688.477    20881687.922          44.500          47.700          51.300
 120146659.783 6  93620810.42744  89719938.515 7  22863152.570
  22863160.809    22863160.570          37.800          26.400          46.100
 112448463.855 7  87459938.680 6                  21028427.000    21028426.742
  21028431.660                          42.500          41.700
 118523660.353 6  92356119.75346  88507943.803 7  22554294.555
  22554302.527    22554302.707          38.700          37.100          46.300
 102818402.511 7  79969906.090 6                  19220812.742    19220812.242
  19220820.094                          45.000          41.400
 102868084.124 5  80008537.567 6                  19263890.836    19263889.480
  19263894.781                          32.900          41.800
 111033839.413 7  86519839.46647                  21129022.695
  21129028.195                          43.900          45.600
 110146909.986 7  85669864.375 7                  20619738.742    20619738.242
  20619743.078                          43.600          44.200
 105788353.137 7  82432454.74446                  20130837.625
  20130842.527                          42.700          36.300
 119858493.281 5  93223169.366 6                  22485115.523    22485112.684
  22485118.684                          35.600          38.100
 111316790.202 7  86740430.14347  83126245.276 8  21182888.656
  21182897.188    21182895.465          43.400          45.900          50.200
 124313363.190 5  96867597.27942                  23656054.820
  23656059.945                          34.300          17.800
 121971181.244 7                  91082396.901 8  23210341.813
                  23210347.250          46.500                          49.900
 135749408.592 6                 101371337.987 7  25832253.438
                  25832258.602          39.500                          43.600
 114447247.811 7                  85463883.073 7  21778585.984
                  21778590.465          42.900                          46.600
 127785482.429 7                  95424248.424 8  24316766.945
                  24316772.914          44.800                          48.100
 128147068.735 6                  95694254.162 7  24385578.492
                  24385584.082          41.400                          44.200
 121911227.529 7                  91037632.311 8  23198933.484
                  23198939.727          46.400                          50.000
 20  7  6  0 45 16.0000000  0 18G08G27R24G30R23R13G07R12G11R14G01G16
                                E27E21E14E13E30E15
 109735320.460 7  85508089.61947  81945247.715 8  20881941.555
  20881949.520    20881948.895          44.500          47.800          51.000
 120149342.376 6  93622900.75944  89721941.743 7  22863663.203
  22863671.359    22863671.059          37.800          25.600          46.000
 112445756.516 7  87457832.967 6                  21027921.047    21027920.207
  21027925.422                          42.500          41.900
 118521592.143 6  92354508.16646  88506399.359 7  22553901.445
  22553908.930    22553909.137          38.300          36.600          46.200
 102818312.648 7  79969836.191 6                  19220796.594    19220795.152
  19220803.238                          44.900          41.100
 102867091.112 5  80007765.190 6                  19263704.438    19263703.457
  19263708.699                          32.900          41.900
 111033551.267 7  86519614.93247                  21128967.578
  21128973.348                          43.700          45.600
 110149800.641 7  85672112.655 7                  20620279.742    20620279.586
  20620284.148                          43.800          43.600
 105787726.556 7  82431966.50446                  20130717.891
  20130723.352                          42.700          36.600
 119854602.986 5  93220143.561 6                  22484385.023    22484382.656
  22484388.863                          35.400          37.500
 111313975.588 7  86738236.93647  83124143.462 8  21182352.102
  21182361.504    21182359.980          43.800          45.900          49.900
 124316018.532 5  96869666.33343                  23656559.992
  23656565.270                          34.400          19.000
 121970967.409 7                  91082237.213 8  23210301.195
                  23210306.551          46.300                          49.700
 135747102.737 6                 101369616.088 7  25831814.242
                  25831819.773          39.300                          43.400
 114441707.357 7                  85459745.730 7  21777531.250
                  21777536.195          42.800                          46.300
 127783525.458 7                  95422787.055 7  24316394.531
                  24316400.531          44.800                          47.700
 128149144.444 6                  95695804.210 7  24385973.344
                  24385979.234          41.900                          44.000
 121911938.304 7                  91038163.091 8  23199068.695
                  23199074.965          46.500                          49.900
 20  7  6  0 45 17.0000000  0 18G08G27R24G30R23R13G07R12G11R14G01G16
                                E27E21E14E13E30E15
 109736691.999 7  85509158.35147  81946271.914 8  20882202.883
  20882210.316    20882209.852          44.600          47.800          51.200
 120152024.966 6  93624991.08744  89723944.983 7  22864173.805
  22864181.867    22864181.535          37.700          25.600          46.400
 112443049.632 7  87455727.626 7                  21027414.563    21027413.887
  21027419.230                          42.600          42.400
 118519524.428 6  92352896.96246  88504855.286 7  22553507.406
  22553515.551    22553515.602          38.200          36.300          46.200
 102818223.412 7  79969766.793 6                  19220780.375    19220778.453
  19220786.645                          45.100          41.100
 102866098.753 5  80006993.360 6                  19263519.844    19263517.457
  19263522.949                          32.600          41.400
 111033263.732 7  86519390.87747                  21128912.750
  21128918.656                          43.500          45.600
 110152691.824 7  85674361.354 7                  20620820.859    20620820.563
  20620825.230                          43.900          43.300
 105787100.433 7  82431478.61146                  20130599.242
  20130604.191                          42.900          36.700
 119850712.789 5  93217117.858 6                  22483654.586    22483652.641
  22483659.055                          35.500          38.000
 111311161.434 7  86736044.08747  83122041.985 8  21181816.547
  21181826.188    21181824.395          43.600          45.900          50.000
 124318674.021 5  96871735.55943                  23657064.742
  23657070.598                          34.100          18.300
 121970753.833 7                  91082077.723 8  23210260.492
                  23210265.824          46.400                          49.900
 135744796.931 6                 101367894.207 7  25831375.570
                  25831380.824          39.300                          43.700
 114436167.132 7                  85455608.525 7  21776476.938
                  21776482.063          42.600                          46.500
 127781568.804 7                  95421325.908 7  24316022.336
                  24316028.094          44.700                          47.600
 128151220.311 6                  95697354.387 7  24386368.445
                  24386374.246          41.900                          44.000
 121912649.418 7                  91038694.114 8  23199203.813
                  23199210.324          46.100                          50.100
 20  7  6  0 45 18.0000000  0 18G08G27R24G30R23R13G07R12G11R14G01G16
                                E27E21E14E13E30E15
 109738063.765 7  85510227.26647  81947296.288 8  20882463.742
  20882471.609    20882470.852          44.300          47.700          51.200
 120154707.630 6  93627081.48244  89725948.255 7  22864683.383
  22864692.359    22864692.125          37.400          25.200          46.200
 112440343.317 7  87453622.684 7                  21026908.164    21026907.898
  21026913.254                          42.900          42.400
 118517457.230 6  92351286.15646  88503311.607 7  22553113.336
  22553122.234    22553122.281          38.100          37.100          46.100
 102818134.851 7  79969697.903 6                  19220763.203    19220761.988
  19220770.070                          45.300          40.900
 102865107.179 5  80006222.127 6                  19263332.773    19263332.074
  19263337.207                          32.800          41.100
 111032976.872 7  86519167.35347                  21128858.141
  21128864.055                          43.600          45.500
 110155583.638 7  85676610.532 7                  20621362.344    20621362.051
  20621366.707                          44.100          43.100
 105786474.900 7  82430991.18246                  20130480.500
  20130485.340                          42.700          36.800
 119846822.780 5  93214092.308 6                  22482924.430    22482922.949
  22482929.402                          35.700          38.300
 111308347.792 7  86733851.63747  83119940.892 8  21181281.430
  21181290.566    21181288.867          43.400          46.000          50.000
 124321329.658 5  96873804.87842                  23657569.656
  23657576.086                          34.300          17.400
 121970540.596 7                  91081918.478 8  23210220.063
                  23210225.180          46.800                          49.900
 135742491.231 6                 101366172.417 7  25830936.727
                  25830942.137          39.400                          43.700
 114430627.145 7                  85451471.554 7  21775422.711
                  21775427.773          42.300                          46.400
 127779612.478 7                  95419865.014 7  24315649.930
                  24315655.930          44.200                          47.400
 128153296.516 6                  95698904.771 7  24386763.750
                  24386769.344          41.400                          43.600
 121913360.938 7                  91039225.436 8  23199339.305
                  23199345.641          46.300                          50.000
 20  7  6  0 45 19.0000000  0 18G08G27R24G30R23R13G07R12G11R14G01G16
                                E27E21E14E13E30E15
 109739435.820 7  85511296.39447  81948320.865 8  20882724.766
  20882732.492    20882732.051          44.600          47.800          51.200
 120157390.385 6  93629171.93744  89727951.624 7  22865194.414
  22865202.754    22865202.641          37.200          25.300          46.200
 112437637.513 7  87451518.187 7                  21026402.258    21026402.121
  21026407.156                          43.200          42.300
 118515390.594 6  92349675.78846  88501768.344 7  22552721.047
  22552728.766    22552729.023          38.400          37.200          46.100
 102818047.027 7  79969629.605 6                  19220746.188    19220745.801
  19220753.641                          45.000          41.000
 102864116.364 5  80005451.512 6                  19263148.430    19263146.289
  19263151.715                          32.800          41.500
 111032690.709 7  86518944.37147                  21128803.727
  21128809.547                          43.700          45.800
 110158476.031 7  85678860.184 7                  20621903.180    20621903.711
  20621908.191                          44.100          43.500
 105785849.948 7  82430504.21346                  20130361.477
  20130366.410                          42.900          36.600
 119842932.996 5  93211066.883 6                  22482193.789    22482193.313
  22482199.801                          35.600          38.000
 111305534.705 7  86731659.62947  83117840.196 8  21180746.133
  21180755.148    21180753.590          43.800          45.900          50.400
 124323985.551 5  96875874.41042                  23658075.492
  23658081.602                          33.800          17.400
 121970327.702 7                  91081759.511 8  23210179.305
                  23210184.734          46.700                          50.200
 135740185.635 6                 101364450.718 7  25830498.047
                  25830503.113          39.300                          43.700
 114425087.473 7                  85447334.779 7  21774368.547
                  21774373.703          42.300                          46.600
 127777656.526 7                  95418404.383 7  24315277.891
                  24315283.750          44.500                          47.700
 128155372.936 6                  95700455.352 7  24387158.891
                  24387164.578          41.500                          43.900
 121914072.868 7                  91039757.086 8  23199474.750
                  23199481.082          46.400                          50.200
 20  7  6  0 45 20.0000000  0 18G08G27R24G30R23R13G07R12G11R14G01G16
                                E27E21E14E13E30E15
 109740808.062 7  85512365.66747  81949345.604 8  20882985.836
  20882993.707    20882993.066          44.700          47.700          51.000
 120160073.143 6  93631262.39444  89729954.986 7  22865705.352
  22865713.332    22865713.023          37.600          26.100          46.200
 112434932.202 7  87449414.050 7                  21025896.680    21025895.871
  21025901.293                          43.000          42.400
 118513324.485 6  92348065.83646  88500225.442 7  22552327.805
  22552335.648    22552335.793          38.600          37.100          46.100
 102817959.834 7  79969561.777 6                  19220730.148    19220729.289
  19220737.223                          45.300          41.000
 102863126.259 5  80004681.398 6                  19262963.398    19262961.090
  19262966.293                          32.700          41.200
 111032405.188 7  86518721.88347                  21128750.219
  21128755.242                          43.600          45.600
 110161368.991 7  85681110.256 7                  20622445.297    20622444.836
  20622449.797                          43.900          43.600
 105785225.509 7  82430017.63346                  20130242.992
  20130247.285                          42.400          36.700
 119839043.304 5  93208041.598 6                  22481464.680    22481463.695
  22481470.156                          35.300          38.100
 111302722.074 7  86729467.96147  83115739.856 8  21180210.750
  21180220.055    21180218.293          43.800          45.800          50.300
 124326641.596 5  96877944.05142                  23658581.391
  23658587.285                          33.400          17.400
 121970115.099 7                  91081600.753 8  23210139.070
                  23210144.254          46.000                          49.900
 135737880.131 6                 101362729.084 7  25830059.391
                  25830064.539          39.900                          43.800
 114419548.035 7                  85443198.172 7  21773314.477
                  21773319.469          42.800                          46.800
 127775700.855 7                  95416943.982 7  24314905.703
                  24314911.531          44.700                          47.500
 128157449.587 6                  95702006.103 7  24387553.945
                  24387559.453          41.400                          44.200
 121914785.157 7                  91040288.979 8  23199610.359
                  23199616.758          46.500                          50.000
 20  7  6  0 45 21.0000000  0 18G08G27R24G30R23R13G07R12G11R14G01G16
                                E27E21E14E13E30E15
 109742180.575 7  85513435.16747  81950370.525 8  20883246.844
  20883254.941    20883254.281          44.100          47.700          51.000
 120162756.024 6  93633352.95244  89731958.435 7  22866215.031
  22866223.758    22866223.656          37.200          26.800          46.400
 112432227.492 7  87447310.386 7                  21025391.305    21025390.477
  21025395.563                          43.000          42.400
 118511258.870 6  92346456.25646  88498682.962 7  22551934.602
  22551942.480    22551942.660          39.000          36.700          46.300
 102817873.372 7  79969494.532 6                  19220713.844    19220713.262
  19220721.074                          45.300          41.300
 102862136.955 5  80003911.960 6                  19262778.391    19262775.781
  19262780.988                          32.800          41.700
 111032120.379 7  86518499.95147                  21128694.906
  21128701.188                          43.600          45.800
 110164262.550 7  85683360.815 7                  20622987.359    20622986.688
  20622991.473                          44.100          43.600
 105784601.671 7  82429531.52746                  20130123.906
  20130128.734                          42.600          36.300
 119835153.826 5  93205016.437 6                  22480735.781    22480733.781
  22480740.605                          35.600          38.200
 111299909.968 7  86727276.71447  83113639.921 8  21179675.727
  21179684.883    21179683.254          43.500          46.000          50.000
 124329297.884 5  96880013.90942                  23659087.281
  23659092.680                          33.500          17.800
 121969902.869 7                  91081442.266 8  23210098.633
                  23210103.922          46.000                          49.700
 135735574.736 6                 101361007.542 7  25829620.727
                  25829625.871          39.700                          43.600
 114414008.876 7                  85439061.792 7  21772260.789
                  21772265.512          43.200                          46.900
 127773745.548 7                  95415483.868 7  24314533.672
                  24314539.406          44.600                          47.700
 128159526.527 6                  95703557.060 7  24387949.258
                  24387954.910          41.600                          44.500
 121915497.868 7                  91040821.190 8  23199746.094
                  23199752.328          46.500                          49.800
 20  7  6  0 45 22.0000000  0 18G08G27R24G30R23R13G07R12G11R14G01G16
                                E27E21E14E13E30E15
 109743553.266 7  85514504.78947  81951395.592 8  20883508.086
  20883516.113    20883515.496          44.200          47.600          51.000
 120165438.916 6  93635443.50344  89733961.880 7  22866726.195
  22866734.188    22866734.215          37.900          25.800          45.900
